[ {
  "id" : 2548,
  "name" : "Prajo Beton CCS Lukač NOVA",
  "address" : "Lukač",
  "town" : "Lukač",
  "lat" : 45.87601,
  "lng" : 17.40476,
  "deluje" : 1,
  "cena_KW" : "",
  "reklamni_tekst_baner" : "",
  "cena_na_vklop" : "",
  "opis" : "Phone Call Mobile App",
  "opis_tip_prikljucka_vticnice" : "CCS Combo@60 kW"
}, {
  "id" : 2550,
  "name" : "Prajo Beton CHAdeMO Lukač NOVA",
  "address" : "Lukač",
  "town" : "Lukač",
  "lat" : 45.87601,
  "lng" : 17.40476,
  "deluje" : 1,
  "cena_KW" : "",
  "reklamni_tekst_baner" : "",
  "cena_na_vklop" : "",
  "opis" : "Phone Call Mobile App",
  "opis_tip_prikljucka_vticnice" : "CHAdeMO DCFC@60 kW"
}, {
  "id" : 2552,
  "name" : "Prajo Beton Type2 Lukač NOVA",
  "address" : "Lukač",
  "town" : "Lukač",
  "lat" : 45.87601,
  "lng" : 17.40476,
  "deluje" : 1,
  "cena_KW" : "",
  "reklamni_tekst_baner" : "",
  "cena_na_vklop" : "",
  "opis" : "Phone Call Mobile App",
  "opis_tip_prikljucka_vticnice" : "Mennekes Type 2 Socket@22 kW"
}, {
  "id" : 2554,
  "name" : "Prajo Beton Schuko L Lukač NOVA",
  "address" : "Lukač",
  "town" : "Lukač",
  "lat" : 45.87601,
  "lng" : 17.40476,
  "deluje" : 1,
  "cena_KW" : "",
  "reklamni_tekst_baner" : "",
  "cena_na_vklop" : "",
  "opis" : "Phone Call Mobile App",
  "opis_tip_prikljucka_vticnice" : "Schuko L 230V@3,6 kW"
}, {
  "id" : 2556,
  "name" : "Prajo Beton Schuko R Lukač NOVA",
  "address" : "Lukač",
  "town" : "Lukač",
  "lat" : 45.87601,
  "lng" : 17.40476,
  "deluje" : 1,
  "cena_KW" : "",
  "reklamni_tekst_baner" : "",
  "cena_na_vklop" : "",
  "opis" : "Phone Call Mobile App",
  "opis_tip_prikljucka_vticnice" : "Schuko R 230V@3,6 kW"
} ]