[ {
  "id" : 1908,
  "name" : "Prebold tr탑nica kolesarska Schuko R",
  "address" : "Dolenja vas",
  "town" : "Prebold",
  "lat" : 46.23947,
  "lng" : 15.09292,
  "deluje" : 0,
  "cena_KW" : "",
  "reklamni_tekst_baner" : "",
  "cena_na_vklop" : "",
  "opis" : "Phone Call Mobile App",
  "opis_tip_prikljucka_vticnice" : "Schuko 230V@2kW"
}, {
  "id" : 1910,
  "name" : "Prebold tr탑nica kolesarska Schuko L",
  "address" : "Dolenja vas",
  "town" : "Prebold",
  "lat" : 46.23947,
  "lng" : 15.09292,
  "deluje" : 0,
  "cena_KW" : "",
  "reklamni_tekst_baner" : "",
  "cena_na_vklop" : "",
  "opis" : "Phone Call Mobile App",
  "opis_tip_prikljucka_vticnice" : "Schuko 230V@2kW"
}, {
  "id" : 1912,
  "name" : "Prebold tr탑nica kolesarska Bosch L",
  "address" : "Dolenja vas",
  "town" : "Prebold",
  "lat" : 46.23947,
  "lng" : 15.09292,
  "deluje" : 0,
  "cena_KW" : "",
  "reklamni_tekst_baner" : "",
  "cena_na_vklop" : "",
  "opis" : "Phone Call Mobile App",
  "opis_tip_prikljucka_vticnice" : "Bosch@6A"
}, {
  "id" : 1914,
  "name" : "Prebold tr탑nica kolesarska Bosch R",
  "address" : "Dolenja vas",
  "town" : "Prebold",
  "lat" : 46.23947,
  "lng" : 15.09292,
  "deluje" : 0,
  "cena_KW" : "",
  "reklamni_tekst_baner" : "",
  "cena_na_vklop" : "",
  "opis" : "Phone Call Mobile App",
  "opis_tip_prikljucka_vticnice" : "Bosch@6A"
} ]