[ {
  "id" : 8,
  "name" : "Pošta Tezno Logistični Center",
  "address" : "Zagrebška 106",
  "town" : "Maribor",
  "lat" : 46.521287,
  "lng" : 15.671921,
  "deluje" : 1,
  "cena_KW" : "",
  "reklamni_tekst_baner" : "",
  "cena_na_vklop" : "",
  "opis" : "",
  "opis_tip_prikljucka_vticnice" : "Schuko 230V@3,6 kW"
}, {
  "id" : 9,
  "name" : "Trajnostni center",
  "address" : "Partizanska",
  "town" : "Maribor",
  "lat" : 46.560599,
  "lng" : 15.65425,
  "deluje" : 1,
  "cena_KW" : "",
  "reklamni_tekst_baner" : "",
  "cena_na_vklop" : "",
  "opis" : "Plug & Charge",
  "opis_tip_prikljucka_vticnice" : "Schuko 230V@2 kW"
}, {
  "id" : 10,
  "name" : "Trajnostni center",
  "address" : "Partizanska",
  "town" : "Maribor",
  "lat" : 46.560599,
  "lng" : 15.65425,
  "deluje" : 1,
  "cena_KW" : "",
  "reklamni_tekst_baner" : "",
  "cena_na_vklop" : "",
  "opis" : "Plug & Charge",
  "opis_tip_prikljucka_vticnice" : "Schuko 230V@3,6 kW"
}, {
  "id" : 11,
  "name" : " Glavna Zelezniska postaja Maribor 1. ",
  "address" : "Partizanska 50",
  "town" : "Maribor",
  "lat" : 46.561543,
  "lng" : 15.657394,
  "deluje" : 1,
  "cena_KW" : "",
  "reklamni_tekst_baner" : "",
  "cena_na_vklop" : "",
  "opis" : "",
  "opis_tip_prikljucka_vticnice" : "400V, 16A"
}, {
  "id" : 12,
  "name" : "Glavna Zelezniska postaja Maribor 2.",
  "address" : "Partizanska 50",
  "town" : "Maribor",
  "lat" : 46.561543,
  "lng" : 15.657394,
  "deluje" : 1,
  "cena_KW" : "",
  "reklamni_tekst_baner" : "",
  "cena_na_vklop" : "",
  "opis" : "",
  "opis_tip_prikljucka_vticnice" : "Schuko 230V@3,6 kW"
}, {
  "id" : 13,
  "name" : "Občina Radlje",
  "address" : "Mariborska 7",
  "town" : "Radlje",
  "lat" : 46.61452,
  "lng" : 15.224812,
  "deluje" : 1,
  "cena_KW" : "",
  "reklamni_tekst_baner" : "",
  "cena_na_vklop" : "",
  "opis" : "",
  "opis_tip_prikljucka_vticnice" : "Schuko 230V@3,6 kW"
}, {
  "id" : 14,
  "name" : "TAM: upravna stavba",
  "address" : "Cesta k Tamu 27",
  "town" : "Maribor",
  "lat" : 46.526402,
  "lng" : 15.666882,
  "deluje" : 1,
  "cena_KW" : "",
  "reklamni_tekst_baner" : "",
  "cena_na_vklop" : "",
  "opis" : "",
  "opis_tip_prikljucka_vticnice" : "Schuko 230V@3,6 kW"
}, {
  "id" : 16,
  "name" : "Biograd na Moru marina",
  "address" : "Setaliste kneza Branimira 2",
  "town" : "Biograd na Moru",
  "lat" : 43.938352,
  "lng" : 15.443835,
  "deluje" : 1,
  "cena_KW" : "",
  "reklamni_tekst_baner" : "",
  "cena_na_vklop" : "",
  "opis" : "",
  "opis_tip_prikljucka_vticnice" : "Schuko 230V@3,6 kW"
}, {
  "id" : 17,
  "name" : "Murska sobota",
  "address" : "Trg zmage 7",
  "town" : "Murska Sobota",
  "lat" : 46.661187,
  "lng" : 16.16442,
  "deluje" : 0,
  "cena_KW" : "",
  "reklamni_tekst_baner" : "",
  "cena_na_vklop" : "",
  "opis" : "",
  "opis_tip_prikljucka_vticnice" : "Schuko 230V@3,6 kW"
}, {
  "id" : 18,
  "name" : "Murska sobota",
  "address" : "Trg zmage 7",
  "town" : "Murska Sobota",
  "lat" : 46.661197,
  "lng" : 16.16443,
  "deluje" : 0,
  "cena_KW" : "",
  "reklamni_tekst_baner" : "",
  "cena_na_vklop" : "",
  "opis" : "",
  "opis_tip_prikljucka_vticnice" : "Schuko 230V@3,6 kW"
}, {
  "id" : 19,
  "name" : "Občina Oplotnica 1",
  "address" : "Goriska cesta",
  "town" : "Oplotnica",
  "lat" : 46.387057,
  "lng" : 15.443752,
  "deluje" : 1,
  "cena_KW" : "",
  "reklamni_tekst_baner" : "",
  "cena_na_vklop" : "",
  "opis" : "",
  "opis_tip_prikljucka_vticnice" : "Schuko 230V@3,6kW"
}, {
  "id" : 20,
  "name" : "Občina Oplotnica 2",
  "address" : "Goriska cesta",
  "town" : "Oplotnica",
  "lat" : 46.387057,
  "lng" : 15.443762,
  "deluje" : 1,
  "cena_KW" : "",
  "reklamni_tekst_baner" : "",
  "cena_na_vklop" : "",
  "opis" : "Phone Call",
  "opis_tip_prikljucka_vticnice" : "Schuko 230V@3,6 kW"
}, {
  "id" : 21,
  "name" : "Občina Oplotnica 3",
  "address" : "Goriska cesta",
  "town" : "Oplotnica",
  "lat" : 46.387057,
  "lng" : 15.443772,
  "deluje" : 1,
  "cena_KW" : "",
  "reklamni_tekst_baner" : "",
  "cena_na_vklop" : "",
  "opis" : "",
  "opis_tip_prikljucka_vticnice" : "Mennekes Type 2 Socket@20 kW"
}, {
  "id" : 22,
  "name" : "Občina Ruše",
  "address" : "",
  "town" : "",
  "lat" : 46.539293,
  "lng" : 15.514969,
  "deluje" : 0,
  "cena_KW" : "0.050",
  "reklamni_tekst_baner" : "",
  "cena_na_vklop" : "",
  "opis" : "",
  "opis_tip_prikljucka_vticnice" : "Mennekes Type 2 Socket@"
}, {
  "id" : 24,
  "name" : "Slovenj Gradec Meškova",
  "address" : "Meškova ulica  ",
  "town" : "Slovenj Gradec",
  "lat" : 46.5101,
  "lng" : 15.08149,
  "deluje" : 0,
  "cena_KW" : "",
  "reklamni_tekst_baner" : "",
  "cena_na_vklop" : "",
  "opis" : " Button     ",
  "opis_tip_prikljucka_vticnice" : "Schuko 230V@3,6 kW"
}, {
  "id" : 25,
  "name" : "Picerija Rudi",
  "address" : "Na soseski",
  "town" : "Maribor",
  "lat" : 46.538348,
  "lng" : 15.635753,
  "deluje" : 1,
  "cena_KW" : "",
  "reklamni_tekst_baner" : "Pizzeria Rudi offers discount to EV drivers charging at their premises.",
  "cena_na_vklop" : "",
  "opis" : "Phone Call Mobile App",
  "opis_tip_prikljucka_vticnice" : "Schuko 230V@2 kW"
}, {
  "id" : 29,
  "name" : "Vodni park Radlje",
  "address" : "Zgornja Vižinga 2",
  "town" : "Radlje",
  "lat" : 46.607986,
  "lng" : 15.202719,
  "deluje" : 1,
  "cena_KW" : "",
  "reklamni_tekst_baner" : "",
  "cena_na_vklop" : "",
  "opis" : "",
  "opis_tip_prikljucka_vticnice" : "Schuko 230V@3,6 kW"
}, {
  "id" : 30,
  "name" : "Zavod Zadihaj izložba",
  "address" : "Dvořakova ulica",
  "town" : "Maribor",
  "lat" : 46.553504,
  "lng" : 15.643734,
  "deluje" : 0,
  "cena_KW" : "",
  "reklamni_tekst_baner" : "",
  "cena_na_vklop" : "",
  "opis" : "Other",
  "opis_tip_prikljucka_vticnice" : "Schuko 230V@2 kW"
}, {
  "id" : 31,
  "name" : "Slovenska Bistrica kolesarska",
  "address" : "Trg svobode",
  "town" : "Slovenska Bistrica",
  "lat" : 46.392532,
  "lng" : 15.573292,
  "deluje" : 1,
  "cena_KW" : "",
  "reklamni_tekst_baner" : "",
  "cena_na_vklop" : "",
  "opis" : "Other",
  "opis_tip_prikljucka_vticnice" : "Schuko 230V@2 kW#Schuko 230V@2 kW#Schuko 230V@2 kW"
}, {
  "id" : 32,
  "name" : "Vtičnica 1",
  "address" : "Cesta na Roglo",
  "town" : "Zreče",
  "lat" : 46.369614,
  "lng" : 15.390956,
  "deluje" : 1,
  "cena_KW" : "",
  "reklamni_tekst_baner" : "",
  "cena_na_vklop" : "",
  "opis" : "",
  "opis_tip_prikljucka_vticnice" : "Schuko 230V@3,6 kW"
}, {
  "id" : 33,
  "name" : "Vtičnica 2",
  "address" : "Cesta na Roglo",
  "town" : "Zreče",
  "lat" : 46.369606,
  "lng" : 15.390935,
  "deluje" : 1,
  "cena_KW" : "",
  "reklamni_tekst_baner" : "",
  "cena_na_vklop" : "",
  "opis" : "",
  "opis_tip_prikljucka_vticnice" : "Schuko 230V@3,6 kW"
}, {
  "id" : 65,
  "name" : "Hotel Livada Prestige",
  "address" : "Kranjčeva ulica 12",
  "town" : "Moravske Toplice",
  "lat" : 46.683838,
  "lng" : 16.221847,
  "deluje" : 1,
  "cena_KW" : "",
  "reklamni_tekst_baner" : "Special offer for users of the charging station.",
  "cena_na_vklop" : "",
  "opis" : "",
  "opis_tip_prikljucka_vticnice" : "Schuko 230V@3,6 kW"
}, {
  "id" : 111,
  "name" : "Bar M",
  "address" : "Kapelska cesta 10",
  "town" : "Dobova",
  "lat" : 45.899308,
  "lng" : 15.660021,
  "deluje" : 1,
  "cena_KW" : "0.000",
  "reklamni_tekst_baner" : "Posebna ponudba za uporabnike polnilnice za električna vozila.",
  "cena_na_vklop" : "",
  "opis" : "Vprašaj natakarja za vklop",
  "opis_tip_prikljucka_vticnice" : "Schuko 230V@3,6 kW"
}, {
  "id" : 162,
  "name" : "Hotel Bajt Schuko R",
  "address" : "RADVANJSKA CESTA",
  "town" : "Maribor",
  "lat" : 46.539634,
  "lng" : 15.628472,
  "deluje" : 1,
  "cena_KW" : "0.180",
  "reklamni_tekst_baner" : "One scoop of ice cream is free for the station users.",
  "cena_na_vklop" : "0.20",
  "opis" : "",
  "opis_tip_prikljucka_vticnice" : "Schuko 230V@2 kW"
}, {
  "id" : 163,
  "name" : "Hotel Bajt Type 2",
  "address" : "RADVANJSKA CESTA",
  "town" : "Maribor",
  "lat" : 46.539634,
  "lng" : 15.628472,
  "deluje" : 1,
  "cena_KW" : "0.180",
  "reklamni_tekst_baner" : "One scoop of ice cream is free for the station users.",
  "cena_na_vklop" : "0.20",
  "opis" : "",
  "opis_tip_prikljucka_vticnice" : "Mennekes Type 2 Socket@10 kW"
}, {
  "id" : 256,
  "name" : "Polnilnica Pristop",
  "address" : "Kajuhova cesta",
  "town" : "Šoštanj",
  "lat" : 46.378357,
  "lng" : 15.046724,
  "deluje" : 1,
  "cena_KW" : "",
  "reklamni_tekst_baner" : "",
  "cena_na_vklop" : "",
  "opis" : "Phone Call Mobile App",
  "opis_tip_prikljucka_vticnice" : "Schuko 230V@3,6 kW"
}, {
  "id" : 263,
  "name" : "Gradec općina Type 2",
  "address" : "Gradečki Pavlovec",
  "town" : "Gradec",
  "lat" : 45.913054,
  "lng" : 16.477003,
  "deluje" : 1,
  "cena_KW" : "",
  "reklamni_tekst_baner" : "",
  "cena_na_vklop" : "",
  "opis" : "Phone Call Mobile App",
  "opis_tip_prikljucka_vticnice" : "Mennekes Type 2 Socket@10 kW"
}, {
  "id" : 264,
  "name" : "Gradec općina  Schuko L",
  "address" : "Gradečki Pavlovec",
  "town" : "Gradec",
  "lat" : 45.913054,
  "lng" : 16.477003,
  "deluje" : 1,
  "cena_KW" : "",
  "reklamni_tekst_baner" : "",
  "cena_na_vklop" : "",
  "opis" : "Phone Call Mobile App",
  "opis_tip_prikljucka_vticnice" : "Schuko 230V@2 kW"
}, {
  "id" : 265,
  "name" : "Gradec općina Schuko R",
  "address" : "Gradečki Pavlovec",
  "town" : "Gradec",
  "lat" : 45.913054,
  "lng" : 16.477003,
  "deluje" : 1,
  "cena_KW" : "",
  "reklamni_tekst_baner" : "",
  "cena_na_vklop" : "",
  "opis" : "Phone Call Mobile App",
  "opis_tip_prikljucka_vticnice" : "Schuko 230V@2 kW"
}, {
  "id" : 266,
  "name" : "Kidričevo, Konjeniški klub Type 2",
  "address" : "Starošince",
  "town" : "Starošince",
  "lat" : 46.424013,
  "lng" : 15.728453,
  "deluje" : 1,
  "cena_KW" : "",
  "reklamni_tekst_baner" : "",
  "cena_na_vklop" : "",
  "opis" : "Phone Call Mobile App",
  "opis_tip_prikljucka_vticnice" : "Mennekes Type 2 Socket@ 10 kW"
}, {
  "id" : 267,
  "name" : "Kidričevo, Konjeniški klub Schuko L ",
  "address" : "Starošince",
  "town" : "Starošince",
  "lat" : 46.424013,
  "lng" : 15.728453,
  "deluje" : 1,
  "cena_KW" : "",
  "reklamni_tekst_baner" : "",
  "cena_na_vklop" : "",
  "opis" : "Phone Call Mobile App",
  "opis_tip_prikljucka_vticnice" : "Schuko 230V@2 kW"
}, {
  "id" : 268,
  "name" : "Kidričevo, Konjeniški klub Schuko D",
  "address" : "Starošince",
  "town" : "Starošince",
  "lat" : 46.424013,
  "lng" : 15.728453,
  "deluje" : 1,
  "cena_KW" : "",
  "reklamni_tekst_baner" : "",
  "cena_na_vklop" : "",
  "opis" : "Phone Call Mobile App",
  "opis_tip_prikljucka_vticnice" : "Schuko 230V@2 kW"
}, {
  "id" : 284,
  "name" : "Rače Grad AC Type 2",
  "address" : "Grajski trg",
  "town" : "Rače",
  "lat" : 46.452591,
  "lng" : 15.67949,
  "deluje" : 1,
  "cena_KW" : "",
  "reklamni_tekst_baner" : "",
  "cena_na_vklop" : "",
  "opis" : "Phone Call Mobile App",
  "opis_tip_prikljucka_vticnice" : "Mennekes Type 2 Socket@10 kW"
}, {
  "id" : 285,
  "name" : "Rače Grad Schuko R",
  "address" : "Grajski trg",
  "town" : "Rače",
  "lat" : 46.452591,
  "lng" : 15.67949,
  "deluje" : 1,
  "cena_KW" : "",
  "reklamni_tekst_baner" : "",
  "cena_na_vklop" : "",
  "opis" : "Phone Call Mobile App",
  "opis_tip_prikljucka_vticnice" : "Schuko 230V@3,6 kW"
}, {
  "id" : 286,
  "name" : "Rače Grad Schuko L",
  "address" : "Grajski trg",
  "town" : "Rače",
  "lat" : 46.452591,
  "lng" : 15.67949,
  "deluje" : 1,
  "cena_KW" : "",
  "reklamni_tekst_baner" : "",
  "cena_na_vklop" : "",
  "opis" : "Phone Call Mobile App",
  "opis_tip_prikljucka_vticnice" : "Schuko 230V@3,6 kW"
}, {
  "id" : 287,
  "name" : "Fram Type 2",
  "address" : "Turnerjeva  ulica",
  "town" : "Fram",
  "lat" : 46.455711,
  "lng" : 15.628916,
  "deluje" : 1,
  "cena_KW" : "",
  "reklamni_tekst_baner" : "",
  "cena_na_vklop" : "",
  "opis" : "Phone Call Mobile App",
  "opis_tip_prikljucka_vticnice" : "Mennekes Type 2 Socket@10 kW"
}, {
  "id" : 290,
  "name" : "Občina Hodoš Schuko L",
  "address" : "Hodoš",
  "town" : "Hodoš",
  "lat" : 46.827523,
  "lng" : 16.325026,
  "deluje" : 1,
  "cena_KW" : "",
  "reklamni_tekst_baner" : "",
  "cena_na_vklop" : "",
  "opis" : "Phone Call Mobile App",
  "opis_tip_prikljucka_vticnice" : "Schuko 230V@3,6 kW"
}, {
  "id" : 291,
  "name" : "Občina Hodoš Type 2",
  "address" : "Hodoš",
  "town" : "Hodoš",
  "lat" : 46.827523,
  "lng" : 16.325026,
  "deluje" : 1,
  "cena_KW" : "",
  "reklamni_tekst_baner" : "",
  "cena_na_vklop" : "",
  "opis" : "Phone Call Mobile App",
  "opis_tip_prikljucka_vticnice" : "Mennekes Type 2 Socket@10 kW"
}, {
  "id" : 292,
  "name" : "Občina Hodoš Schuko R",
  "address" : "Hodoš",
  "town" : "Hodoš",
  "lat" : 46.827523,
  "lng" : 16.325026,
  "deluje" : 1,
  "cena_KW" : "",
  "reklamni_tekst_baner" : "",
  "cena_na_vklop" : "",
  "opis" : "Phone Call Mobile App",
  "opis_tip_prikljucka_vticnice" : "Schuko 230V@3,6 kW"
}, {
  "id" : 293,
  "name" : "Športni park Zavrč Schuko L",
  "address" : "Zavrč",
  "town" : "Zavrč",
  "lat" : 46.385245,
  "lng" : 16.048002,
  "deluje" : 1,
  "cena_KW" : "",
  "reklamni_tekst_baner" : "",
  "cena_na_vklop" : "",
  "opis" : "Phone Call Mobile App",
  "opis_tip_prikljucka_vticnice" : "Schuko 230V@3,6 kW"
}, {
  "id" : 294,
  "name" : "Športni park Zavrč Type 2",
  "address" : "Zavrč",
  "town" : "Zavrč",
  "lat" : 46.385245,
  "lng" : 16.048002,
  "deluje" : 1,
  "cena_KW" : "",
  "reklamni_tekst_baner" : "",
  "cena_na_vklop" : "",
  "opis" : "Phone Call Mobile App",
  "opis_tip_prikljucka_vticnice" : "Mennekes Type 2 Socket@10 kW"
}, {
  "id" : 295,
  "name" : "Športni park Zavrč Schuko R",
  "address" : "Zavrč",
  "town" : "Zavrč",
  "lat" : 46.385245,
  "lng" : 16.048002,
  "deluje" : 1,
  "cena_KW" : "",
  "reklamni_tekst_baner" : "",
  "cena_na_vklop" : "",
  "opis" : "Phone Call Mobile App",
  "opis_tip_prikljucka_vticnice" : "Schuko 230V@3,6 kW"
}, {
  "id" : 296,
  "name" : "Občina Podlehnik Schuko L",
  "address" : "Podlehnik",
  "town" : "Podlehnik",
  "lat" : 46.336008,
  "lng" : 15.87805,
  "deluje" : 1,
  "cena_KW" : "",
  "reklamni_tekst_baner" : "",
  "cena_na_vklop" : "",
  "opis" : "Phone Call Mobile App",
  "opis_tip_prikljucka_vticnice" : "Schuko 230V@3,6 kW"
}, {
  "id" : 297,
  "name" : "Občina Podlehnik Type 2",
  "address" : "Podlehnik",
  "town" : "Podlehnik",
  "lat" : 46.336008,
  "lng" : 15.87805,
  "deluje" : 1,
  "cena_KW" : "",
  "reklamni_tekst_baner" : "",
  "cena_na_vklop" : "",
  "opis" : "Phone Call Mobile App",
  "opis_tip_prikljucka_vticnice" : "Mennekes Type 2 Socket@15 kW"
}, {
  "id" : 298,
  "name" : "Občina Podlehnik Schuko R",
  "address" : "Podlehnik",
  "town" : "Podlehnik",
  "lat" : 46.336008,
  "lng" : 15.87805,
  "deluje" : 1,
  "cena_KW" : "",
  "reklamni_tekst_baner" : "",
  "cena_na_vklop" : "",
  "opis" : "Phone Call Mobile App",
  "opis_tip_prikljucka_vticnice" : "Schuko 230V@3,6 kW"
}, {
  "id" : 302,
  "name" : "Občina Žalec Schuko L",
  "address" : "Ulica Savinjske čete",
  "town" : "Žalec",
  "lat" : 46.250406,
  "lng" : 15.164188,
  "deluje" : 1,
  "cena_KW" : "0.220",
  "reklamni_tekst_baner" : "",
  "cena_na_vklop" : "0.20",
  "opis" : "Phone Call Mobile App",
  "opis_tip_prikljucka_vticnice" : "Schuko 230V@3,6 kW"
}, {
  "id" : 303,
  "name" : "Občina Žalec Schuko R",
  "address" : "Ulica Savinjske čete",
  "town" : "Žalec",
  "lat" : 46.250406,
  "lng" : 15.164188,
  "deluje" : 1,
  "cena_KW" : "0.220",
  "reklamni_tekst_baner" : "",
  "cena_na_vklop" : "0.20",
  "opis" : "Phone Call Mobile App",
  "opis_tip_prikljucka_vticnice" : "Schuko 230V@3,6 kW"
}, {
  "id" : 304,
  "name" : "Občina Žalec Type 2",
  "address" : "Ulica Savinjske čete",
  "town" : "Žalec",
  "lat" : 46.250406,
  "lng" : 15.164188,
  "deluje" : 1,
  "cena_KW" : "0.220",
  "reklamni_tekst_baner" : "",
  "cena_na_vklop" : "0.20",
  "opis" : "Phone Call Mobile App",
  "opis_tip_prikljucka_vticnice" : "Mennekes Type 2 Socket@10 kW"
}, {
  "id" : 306,
  "name" : "Šentjur pri Podjetniškem inkubatorju Schuko L",
  "address" : "Mestni trg",
  "town" : "Šentjur",
  "lat" : 46.216124,
  "lng" : 15.393951,
  "deluje" : 1,
  "cena_KW" : "",
  "reklamni_tekst_baner" : "",
  "cena_na_vklop" : "",
  "opis" : "Phone Call Mobile App",
  "opis_tip_prikljucka_vticnice" : "Schuko 230V@3,6 kW"
}, {
  "id" : 307,
  "name" : "Šentjur pri Podjetniškem inkubatorju Schuko R",
  "address" : "Mestni trg",
  "town" : "Šentjur",
  "lat" : 46.216124,
  "lng" : 15.393951,
  "deluje" : 1,
  "cena_KW" : "",
  "reklamni_tekst_baner" : "",
  "cena_na_vklop" : "",
  "opis" : "Phone Call Mobile App",
  "opis_tip_prikljucka_vticnice" : "Schuko 230V@3,6 kW"
}, {
  "id" : 308,
  "name" : "Šentjur pri Podjetniškem inkubatorju Type 2",
  "address" : "Mestni trg",
  "town" : "Šentjur",
  "lat" : 46.216124,
  "lng" : 15.393951,
  "deluje" : 1,
  "cena_KW" : "",
  "reklamni_tekst_baner" : "",
  "cena_na_vklop" : "",
  "opis" : "Phone Call Mobile App",
  "opis_tip_prikljucka_vticnice" : "Mennekes Type 2 Socket@10 kW"
}, {
  "id" : 309,
  "name" : "Občina Cankova DC Schuko L",
  "address" : "Cankova\n",
  "town" : "Cankova",
  "lat" : 46.717986,
  "lng" : 16.019193,
  "deluje" : 0,
  "cena_KW" : "",
  "reklamni_tekst_baner" : "",
  "cena_na_vklop" : "",
  "opis" : "Phone Call Mobile App",
  "opis_tip_prikljucka_vticnice" : "Cankova Schuko 230V@3,6 kW"
}, {
  "id" : 310,
  "name" : "Občina Cankova DC Schuko R",
  "address" : "Cankova\n",
  "town" : "Cankova",
  "lat" : 46.717986,
  "lng" : 16.019193,
  "deluje" : 0,
  "cena_KW" : "",
  "reklamni_tekst_baner" : "",
  "cena_na_vklop" : "",
  "opis" : "Phone Call Mobile App",
  "opis_tip_prikljucka_vticnice" : "Schuko 230V@3,6 kW"
}, {
  "id" : 311,
  "name" : "Občina Cankova DC CHAdeMO",
  "address" : "Cankova\n",
  "town" : "Cankova",
  "lat" : 46.717986,
  "lng" : 16.019193,
  "deluje" : 0,
  "cena_KW" : "",
  "reklamni_tekst_baner" : "",
  "cena_na_vklop" : "",
  "opis" : "Phone Call Mobile App",
  "opis_tip_prikljucka_vticnice" : "CHAdeMO DCFC@10 kW"
}, {
  "id" : 312,
  "name" : "Občina Cankova DC CCS Combo",
  "address" : "Cankova\n",
  "town" : "Cankova",
  "lat" : 46.717986,
  "lng" : 16.019193,
  "deluje" : 0,
  "cena_KW" : "",
  "reklamni_tekst_baner" : "",
  "cena_na_vklop" : "",
  "opis" : "Phone Call Mobile App",
  "opis_tip_prikljucka_vticnice" : "CCS Combo@10 kW"
}, {
  "id" : 313,
  "name" : "Kungota Schuko L",
  "address" : "Plintovec",
  "town" : "Plintovec",
  "lat" : 46.636944,
  "lng" : 15.617995,
  "deluje" : 1,
  "cena_KW" : "",
  "reklamni_tekst_baner" : "",
  "cena_na_vklop" : "",
  "opis" : "Phone Call Mobile App",
  "opis_tip_prikljucka_vticnice" : "Schuko 230V@3,6 kW"
}, {
  "id" : 314,
  "name" : "Kungota Schuko R",
  "address" : "Plintovec",
  "town" : "Plintovec",
  "lat" : 46.636944,
  "lng" : 15.617995,
  "deluje" : 1,
  "cena_KW" : "",
  "reklamni_tekst_baner" : "",
  "cena_na_vklop" : "",
  "opis" : "Phone Call Mobile App",
  "opis_tip_prikljucka_vticnice" : "Schuko 230V@3,6 kW"
}, {
  "id" : 315,
  "name" : "Kungota DC CHAdeMO",
  "address" : "Plintovec",
  "town" : "Plintovec",
  "lat" : 46.636944,
  "lng" : 15.617995,
  "deluje" : 1,
  "cena_KW" : "",
  "reklamni_tekst_baner" : "",
  "cena_na_vklop" : "",
  "opis" : "Phone Call Mobile App",
  "opis_tip_prikljucka_vticnice" : "CHAdeMO DCFC@15 kW"
}, {
  "id" : 316,
  "name" : "Kungota DC CCS Combo",
  "address" : "Plintovec",
  "town" : "Plintovec",
  "lat" : 46.636944,
  "lng" : 15.617995,
  "deluje" : 1,
  "cena_KW" : "",
  "reklamni_tekst_baner" : "",
  "cena_na_vklop" : "",
  "opis" : "Phone Call Mobile App",
  "opis_tip_prikljucka_vticnice" : "CCS Combo@15 kW"
}, {
  "id" : 317,
  "name" : "Starše pri OŠ Schuko L",
  "address" : "Starše",
  "town" : "Starše",
  "lat" : 46.465813,
  "lng" : 15.768545,
  "deluje" : 0,
  "cena_KW" : "",
  "reklamni_tekst_baner" : "",
  "cena_na_vklop" : "",
  "opis" : "Phone Call Mobile App",
  "opis_tip_prikljucka_vticnice" : "Schuko 230V@3,6 kW"
}, {
  "id" : 318,
  "name" : "Starše pri OŠ Schuko R",
  "address" : "Starše",
  "town" : "Starše",
  "lat" : 46.465813,
  "lng" : 15.768545,
  "deluje" : 0,
  "cena_KW" : "",
  "reklamni_tekst_baner" : "",
  "cena_na_vklop" : "",
  "opis" : "Phone Call Mobile App",
  "opis_tip_prikljucka_vticnice" : "Schuko 230V@3,6 kW"
}, {
  "id" : 319,
  "name" : "Starše pri OŠ Type 2",
  "address" : "Starše",
  "town" : "Starše",
  "lat" : 46.465813,
  "lng" : 15.768545,
  "deluje" : 0,
  "cena_KW" : "",
  "reklamni_tekst_baner" : "",
  "cena_na_vklop" : "",
  "opis" : "Phone Call Mobile App",
  "opis_tip_prikljucka_vticnice" : "Mennekes Type 2 Socket@15 kW"
}, {
  "id" : 320,
  "name" : "Marjeta, Starše  Schuko L",
  "address" : "Marjeta na Dravskem polju",
  "town" : "Starše",
  "lat" : 46.451529,
  "lng" : 15.739458,
  "deluje" : 0,
  "cena_KW" : "",
  "reklamni_tekst_baner" : "",
  "cena_na_vklop" : "",
  "opis" : "Phone Call Mobile App",
  "opis_tip_prikljucka_vticnice" : "Schuko 230V@3,6 kW"
}, {
  "id" : 321,
  "name" : "Marjeta, Starše Schuko R",
  "address" : "Marjeta na Dravskem polju",
  "town" : "Starše",
  "lat" : 46.451529,
  "lng" : 15.739458,
  "deluje" : 0,
  "cena_KW" : "",
  "reklamni_tekst_baner" : "",
  "cena_na_vklop" : "",
  "opis" : "Phone Call Mobile App",
  "opis_tip_prikljucka_vticnice" : "Schuko 230V@3,6 kW"
}, {
  "id" : 322,
  "name" : "Marjeta, Starše Type 2",
  "address" : "Marjeta na Dravskem polju",
  "town" : "Starše",
  "lat" : 46.451529,
  "lng" : 15.739458,
  "deluje" : 0,
  "cena_KW" : "",
  "reklamni_tekst_baner" : "",
  "cena_na_vklop" : "",
  "opis" : "Phone Call Mobile App",
  "opis_tip_prikljucka_vticnice" : "Mennekes Type 2 Socket@15 kW"
}, {
  "id" : 323,
  "name" : "Starše pri Domu Krajanov Brunšvik Schuko L",
  "address" : "Brunšvik",
  "town" : "Starše",
  "lat" : 46.437608,
  "lng" : 15.729254,
  "deluje" : 1,
  "cena_KW" : "",
  "reklamni_tekst_baner" : "",
  "cena_na_vklop" : "",
  "opis" : "Phone Call Mobile App",
  "opis_tip_prikljucka_vticnice" : "Schuko 230V@3,6 kW"
}, {
  "id" : 324,
  "name" : "Starše pri Domu Krajanov Brunšvik Schuko R",
  "address" : "Brunšvik",
  "town" : "Starše",
  "lat" : 46.437608,
  "lng" : 15.729254,
  "deluje" : 1,
  "cena_KW" : "",
  "reklamni_tekst_baner" : "",
  "cena_na_vklop" : "",
  "opis" : "Phone Call Mobile App",
  "opis_tip_prikljucka_vticnice" : "Schuko 230V@3,6 kW"
}, {
  "id" : 325,
  "name" : "Starše pri Domu Krajanov Brunšvik Type 2",
  "address" : "Brunšvik",
  "town" : "Starše",
  "lat" : 46.437608,
  "lng" : 15.729254,
  "deluje" : 1,
  "cena_KW" : "",
  "reklamni_tekst_baner" : "",
  "cena_na_vklop" : "",
  "opis" : "Phone Call Mobile App",
  "opis_tip_prikljucka_vticnice" : "Mennekes Type 2 Socket@15 kW"
}, {
  "id" : 326,
  "name" : "Kidričevo pri Gasilskem domu Lovrenc na dr. Polju Schuko L",
  "address" : "Lovrenc na Dravskem polju",
  "town" : "Lovrenc na Dravskem polju",
  "lat" : 46.373704,
  "lng" : 15.776526,
  "deluje" : 1,
  "cena_KW" : "",
  "reklamni_tekst_baner" : "",
  "cena_na_vklop" : "",
  "opis" : "Phone Call Mobile App",
  "opis_tip_prikljucka_vticnice" : "Schuko 230V@3,6 kW"
}, {
  "id" : 327,
  "name" : "Kidričevo pri Gasilskem domu Lovrenc na dr. Polju Schuko R",
  "address" : "Lovrenc na Dravskem polju",
  "town" : "Lovrenc na Dravskem polju",
  "lat" : 46.373704,
  "lng" : 15.776526,
  "deluje" : 1,
  "cena_KW" : "",
  "reklamni_tekst_baner" : "",
  "cena_na_vklop" : "",
  "opis" : "Phone Call Mobile App",
  "opis_tip_prikljucka_vticnice" : "Schuko 230V@3,6 kW"
}, {
  "id" : 328,
  "name" : "Kidričevo pri Gasilskem domu Lovrenc na dr. Polju Type 2",
  "address" : "Lovrenc na Dravskem polju",
  "town" : "Lovrenc na Dravskem polju",
  "lat" : 46.373704,
  "lng" : 15.776526,
  "deluje" : 1,
  "cena_KW" : "",
  "reklamni_tekst_baner" : "",
  "cena_na_vklop" : "",
  "opis" : "Phone Call Mobile App",
  "opis_tip_prikljucka_vticnice" : "Mennekes Type 2 Socket@10 kW"
}, {
  "id" : 330,
  "name" : "Fram Schuko L",
  "address" : "Turnerjeva  ulica",
  "town" : "Fram",
  "lat" : 46.455711,
  "lng" : 15.628916,
  "deluje" : 1,
  "cena_KW" : "",
  "reklamni_tekst_baner" : "",
  "cena_na_vklop" : "",
  "opis" : "Phone Call Mobile App",
  "opis_tip_prikljucka_vticnice" : "Schuko 230V@3,6 kW"
}, {
  "id" : 331,
  "name" : "Fram Schuko R",
  "address" : "Turnerjeva  ulica",
  "town" : "Fram",
  "lat" : 46.455711,
  "lng" : 15.628916,
  "deluje" : 1,
  "cena_KW" : "",
  "reklamni_tekst_baner" : "",
  "cena_na_vklop" : "",
  "opis" : "Phone Call Mobile App",
  "opis_tip_prikljucka_vticnice" : "Schuko 230V@2 kW"
}, {
  "id" : 332,
  "name" : "Občina Dobje pri Gostilni pri Olgi Schuko L",
  "address" : "Škarnice",
  "town" : "Škarnice",
  "lat" : 46.137382,
  "lng" : 15.388832,
  "deluje" : 1,
  "cena_KW" : "",
  "reklamni_tekst_baner" : "",
  "cena_na_vklop" : "",
  "opis" : "Phone Call Mobile App",
  "opis_tip_prikljucka_vticnice" : "Schuko 230V@3,6 kW"
}, {
  "id" : 334,
  "name" : "Občina Dobje pri Gostilni pri Olgi Type 2",
  "address" : "Škarnice",
  "town" : "Škarnice",
  "lat" : 46.137382,
  "lng" : 15.388832,
  "deluje" : 1,
  "cena_KW" : "",
  "reklamni_tekst_baner" : "",
  "cena_na_vklop" : "",
  "opis" : "Phone Call Mobile App",
  "opis_tip_prikljucka_vticnice" : "Mennekes Type 2 Socket@10 kW"
}, {
  "id" : 335,
  "name" : "Občina Miren Kostanjevica pri Gostilni Štirna Schuko R",
  "address" : "Opatje selo ",
  "town" : "Miren",
  "lat" : 45.851385,
  "lng" : 13.582558,
  "deluje" : 1,
  "cena_KW" : "",
  "reklamni_tekst_baner" : "",
  "cena_na_vklop" : "",
  "opis" : "Phone Call Mobile App",
  "opis_tip_prikljucka_vticnice" : "Schuko 230V@3,6 kW"
}, {
  "id" : 336,
  "name" : "Občina Miren Kostanjevica pri Gostilni Štirna Schuko L",
  "address" : "Opatje selo",
  "town" : "Miren",
  "lat" : 45.851385,
  "lng" : 13.582558,
  "deluje" : 1,
  "cena_KW" : "",
  "reklamni_tekst_baner" : "",
  "cena_na_vklop" : "",
  "opis" : "Phone Call Mobile App",
  "opis_tip_prikljucka_vticnice" : "Schuko 230V@3,6 kW"
}, {
  "id" : 337,
  "name" : "Občina Miren Kostanjevica pri Gostilni Štirna Type 2",
  "address" : "Opatje selo",
  "town" : "Miren ",
  "lat" : 45.851385,
  "lng" : 13.582558,
  "deluje" : 1,
  "cena_KW" : "",
  "reklamni_tekst_baner" : "",
  "cena_na_vklop" : "",
  "opis" : "Phone Call Mobile App",
  "opis_tip_prikljucka_vticnice" : "Mennekes Type 2 Socket@10 kW"
}, {
  "id" : 338,
  "name" : "Občina Kočevje - Schuko L",
  "address" : "Kolodvorska cesta",
  "town" : "Kočevje",
  "lat" : 45.64343,
  "lng" : 14.85659,
  "deluje" : 0,
  "cena_KW" : "",
  "reklamni_tekst_baner" : "",
  "cena_na_vklop" : "",
  "opis" : "Phone Call Mobile App",
  "opis_tip_prikljucka_vticnice" : "Schuko 230V@2 kW"
}, {
  "id" : 339,
  "name" : "Občina Kočevje - Schuko R",
  "address" : "Kolodvorska cesta",
  "town" : "Kočevje",
  "lat" : 45.64343,
  "lng" : 14.85659,
  "deluje" : 0,
  "cena_KW" : "",
  "reklamni_tekst_baner" : "",
  "cena_na_vklop" : "",
  "opis" : "Phone Call Mobile App",
  "opis_tip_prikljucka_vticnice" : "Schuko 230V@2 kW"
}, {
  "id" : 340,
  "name" : "Občina Kočevje DC - CHAdeMO",
  "address" : "Kolodvorska cesta",
  "town" : "Kočevje",
  "lat" : 45.64343,
  "lng" : 14.85659,
  "deluje" : 0,
  "cena_KW" : "",
  "reklamni_tekst_baner" : "",
  "cena_na_vklop" : "",
  "opis" : "Phone Call Mobile App",
  "opis_tip_prikljucka_vticnice" : "CHAdeMO DCFC@10 kW"
}, {
  "id" : 341,
  "name" : "Občina Kočevje DC - CCS Combo",
  "address" : "Kolodvorska cesta",
  "town" : "Kočevje",
  "lat" : 45.64343,
  "lng" : 14.85659,
  "deluje" : 0,
  "cena_KW" : "",
  "reklamni_tekst_baner" : "",
  "cena_na_vklop" : "",
  "opis" : "Phone Call Mobile App",
  "opis_tip_prikljucka_vticnice" : "CCS Combo@10 kW"
}, {
  "id" : 342,
  "name" : "Občina Dolenjske Toplice DC - Schuko L",
  "address" : "Sokolski trg",
  "town" : "Dolenjske toplice",
  "lat" : 45.755741,
  "lng" : 15.060061,
  "deluje" : 1,
  "cena_KW" : "",
  "reklamni_tekst_baner" : "",
  "cena_na_vklop" : "",
  "opis" : "Phone Call Mobile App",
  "opis_tip_prikljucka_vticnice" : "Schuko 230V@3,6 kW"
}, {
  "id" : 343,
  "name" : "Občina Dolenjske Toplice DC - Schuko R",
  "address" : "Sokolski trg",
  "town" : "Dolenjske toplice",
  "lat" : 45.755741,
  "lng" : 15.060061,
  "deluje" : 1,
  "cena_KW" : "",
  "reklamni_tekst_baner" : "",
  "cena_na_vklop" : "",
  "opis" : "Phone Call Mobile App",
  "opis_tip_prikljucka_vticnice" : "Schuko 230V@3,6 kW"
}, {
  "id" : 344,
  "name" : "Občina Dolenjske Toplice DC - CHAdeMO",
  "address" : "Sokolski trg",
  "town" : "Dolenjske toplice",
  "lat" : 45.755741,
  "lng" : 15.060061,
  "deluje" : 1,
  "cena_KW" : "",
  "reklamni_tekst_baner" : "",
  "cena_na_vklop" : "",
  "opis" : "Phone Call Mobile App",
  "opis_tip_prikljucka_vticnice" : "CHAdeMO DCFC@10 kW"
}, {
  "id" : 345,
  "name" : "Občina Dolenjske Toplice DC - CCS Combo",
  "address" : "Sokolski trg",
  "town" : "Dolenjske toplice",
  "lat" : 45.755741,
  "lng" : 15.060061,
  "deluje" : 1,
  "cena_KW" : "",
  "reklamni_tekst_baner" : "",
  "cena_na_vklop" : "",
  "opis" : "Phone Call Mobile App",
  "opis_tip_prikljucka_vticnice" : "CCS Combo@10 kW"
}, {
  "id" : 346,
  "name" : "Občina Tabor DC - Schuko L",
  "address" : "Tabor",
  "town" : "Tabor",
  "lat" : 46.234452,
  "lng" : 15.014519,
  "deluje" : 1,
  "cena_KW" : "",
  "reklamni_tekst_baner" : "",
  "cena_na_vklop" : "",
  "opis" : "Phone Call Mobile App",
  "opis_tip_prikljucka_vticnice" : "Schuko 230V@3,6 kW"
}, {
  "id" : 347,
  "name" : "Občina Tabor DC - Schuko R",
  "address" : "Tabor",
  "town" : "Tabor",
  "lat" : 46.234452,
  "lng" : 15.014519,
  "deluje" : 1,
  "cena_KW" : "",
  "reklamni_tekst_baner" : "",
  "cena_na_vklop" : "",
  "opis" : "Phone Call Mobile App",
  "opis_tip_prikljucka_vticnice" : "Schuko 230V@3,6 kW"
}, {
  "id" : 348,
  "name" : "Občina Tabor DC - CHAdeMO",
  "address" : "Tabor",
  "town" : "Tabor",
  "lat" : 46.234452,
  "lng" : 15.014519,
  "deluje" : 1,
  "cena_KW" : "",
  "reklamni_tekst_baner" : "",
  "cena_na_vklop" : "",
  "opis" : "Phone Call Mobile App",
  "opis_tip_prikljucka_vticnice" : "CHAdeMO DCFC@10 kW"
}, {
  "id" : 349,
  "name" : "Občina Tabor DC - CCS Combo",
  "address" : "Tabor",
  "town" : "Tabor",
  "lat" : 46.234452,
  "lng" : 15.014519,
  "deluje" : 1,
  "cena_KW" : "",
  "reklamni_tekst_baner" : "",
  "cena_na_vklop" : "",
  "opis" : "Phone Call Mobile App",
  "opis_tip_prikljucka_vticnice" : "CCS Combo@10 kW"
}, {
  "id" : 352,
  "name" : "Občina Mirna Peč DC - CHAdeMO",
  "address" : "Trg",
  "town" : "Mirna Peč",
  "lat" : 45.859071,
  "lng" : 15.083772,
  "deluje" : 1,
  "cena_KW" : "",
  "reklamni_tekst_baner" : "",
  "cena_na_vklop" : "",
  "opis" : "Phone Call Mobile App",
  "opis_tip_prikljucka_vticnice" : "CHAdeMO DCFC@10 kW"
}, {
  "id" : 353,
  "name" : "Občina Mirna Peč DC - CCS Combo",
  "address" : "Trg",
  "town" : "Mirna Peč",
  "lat" : 45.859071,
  "lng" : 15.083772,
  "deluje" : 1,
  "cena_KW" : "",
  "reklamni_tekst_baner" : "",
  "cena_na_vklop" : "",
  "opis" : "Phone Call Mobile App",
  "opis_tip_prikljucka_vticnice" : "CCS Combo@10 kW"
}, {
  "id" : 358,
  "name" : "Občina Vojnik - Schuko L",
  "address" : "Murnova ulica",
  "town" : "Vojnik",
  "lat" : 46.287983,
  "lng" : 15.305243,
  "deluje" : 0,
  "cena_KW" : "",
  "reklamni_tekst_baner" : "",
  "cena_na_vklop" : "",
  "opis" : "Phone Call Mobile App",
  "opis_tip_prikljucka_vticnice" : "Občina Vojnik Schuko 230V@3,6 kW"
}, {
  "id" : 359,
  "name" : "Občina Vojnik - Schuko R",
  "address" : "Murnova ulica",
  "town" : "Vojnik",
  "lat" : 46.287983,
  "lng" : 15.305243,
  "deluje" : 0,
  "cena_KW" : "",
  "reklamni_tekst_baner" : "",
  "cena_na_vklop" : "",
  "opis" : "Phone Call Mobile App",
  "opis_tip_prikljucka_vticnice" : "Schuko 230V@3,6 kW"
}, {
  "id" : 362,
  "name" : "Občina Hajdina DC - Schuko L",
  "address" : "Zgornja Hajdina",
  "town" : "Hajdina",
  "lat" : 46.407418,
  "lng" : 15.838017,
  "deluje" : 1,
  "cena_KW" : "",
  "reklamni_tekst_baner" : "",
  "cena_na_vklop" : "",
  "opis" : "Phone Call Mobile App",
  "opis_tip_prikljucka_vticnice" : "Schuko 230V@3,6 kW"
}, {
  "id" : 363,
  "name" : "Občina Hajdina DC - Schuko R",
  "address" : "Zgornja Hajdina",
  "town" : "Hajdina",
  "lat" : 46.407418,
  "lng" : 15.838017,
  "deluje" : 1,
  "cena_KW" : "",
  "reklamni_tekst_baner" : "",
  "cena_na_vklop" : "",
  "opis" : "Phone Call Mobile App",
  "opis_tip_prikljucka_vticnice" : "Schuko 230V@3,6 kW"
}, {
  "id" : 364,
  "name" : "Občina Hajdina DC - CHAdeMO",
  "address" : "Zgornja Hajdina",
  "town" : "Hajdina",
  "lat" : 46.407418,
  "lng" : 15.838017,
  "deluje" : 1,
  "cena_KW" : "",
  "reklamni_tekst_baner" : "Vsak uporabnik, ki bo 20. uporabil DC polnenje na tej polnilnici bo dobil brezplačno pizzo v pizzeriji Moschkon takoj ob polnilnici. Dodatni pogoj je delitev informacije na enem od družbenih omrežij ter poslan email na naslov sales@elevat.eu z dokazilom o objavi. Brezplačna konzumacija je možna s kodo, ki jo boste prejeli od podpore ELEVAT sistema polnilnic. Polnjenje velja, če je daljše od 10 minut in največ 2 polnjenja dnevno.  Podpora:059 345 110.\r\n",
  "cena_na_vklop" : "",
  "opis" : "Phone Call Mobile App",
  "opis_tip_prikljucka_vticnice" : "CHAdeMO DCFC@15 kW"
}, {
  "id" : 365,
  "name" : "Občina Hajdina DC - CCS Combo",
  "address" : "Zgornja Hajdina",
  "town" : "Hajdina",
  "lat" : 46.407418,
  "lng" : 15.838017,
  "deluje" : 1,
  "cena_KW" : "",
  "reklamni_tekst_baner" : "Vsak uporabnik, ki bo 20. uporabil DC polnenje na tej polnilnici bo dobil brezplačno pizzo v pizzeriji Moschkon takoj ob polnilnici. Dodatni pogoj je delitev informacije na enem od družbenih omrežij ter poslan email na naslov sales@elevat.eu z dokazilom o objavi. Brezplačna konzumacija je možna s kodo, ki jo boste prejeli od podpore ELEVAT sistema polnilnic. Polnjenje velja, če je daljše od 10 minut in največ 2 polnjenja dnevno.  Podpora:059 345 110.\n",
  "cena_na_vklop" : "",
  "opis" : "Phone Call Mobile App",
  "opis_tip_prikljucka_vticnice" : "CCS Combo@15 kW"
}, {
  "id" : 369,
  "name" : "Občina Šoštanj pri Tresimirjevem parku Schuko L",
  "address" : "Cankarjeva cesta",
  "town" : "Šoštanj",
  "lat" : 46.376944,
  "lng" : 15.052847,
  "deluje" : 1,
  "cena_KW" : "",
  "reklamni_tekst_baner" : "",
  "cena_na_vklop" : "",
  "opis" : "Phone Call Mobile App",
  "opis_tip_prikljucka_vticnice" : "Schuko 230V@3,6 kW"
}, {
  "id" : 370,
  "name" : "Občina Šoštanj pri Tresimirjevem parku Schuko R",
  "address" : "Cankarjeva cesta",
  "town" : "Šoštanj",
  "lat" : 46.376944,
  "lng" : 15.052847,
  "deluje" : 1,
  "cena_KW" : "",
  "reklamni_tekst_baner" : "",
  "cena_na_vklop" : "",
  "opis" : "Phone Call Mobile App",
  "opis_tip_prikljucka_vticnice" : "Schuko 230V@3,6 kW"
}, {
  "id" : 371,
  "name" : "Občina Šoštanj pri Tresimirjevem parku DC - CHAdeMO",
  "address" : "Cankarjeva cesta",
  "town" : "Šoštanj",
  "lat" : 46.376944,
  "lng" : 15.052847,
  "deluje" : 1,
  "cena_KW" : "",
  "reklamni_tekst_baner" : "",
  "cena_na_vklop" : "",
  "opis" : "Phone Call Mobile App",
  "opis_tip_prikljucka_vticnice" : "CHAdeMO DCFC@10 kW"
}, {
  "id" : 372,
  "name" : "Občina Šoštanj pri Tresimirjevem parku DC - CCS Combo",
  "address" : "Cankarjeva cesta",
  "town" : "Šoštanj",
  "lat" : 46.376944,
  "lng" : 15.052847,
  "deluje" : 1,
  "cena_KW" : "",
  "reklamni_tekst_baner" : "",
  "cena_na_vklop" : "",
  "opis" : "Phone Call Mobile App",
  "opis_tip_prikljucka_vticnice" : "CCS Combo@10 kW"
}, {
  "id" : 373,
  "name" : "Šoštanj na stari bencinski DC - Schuko L",
  "address" : "Kajuhova cesta",
  "town" : "Šoštanj",
  "lat" : 46.377782,
  "lng" : 15.047311,
  "deluje" : 1,
  "cena_KW" : "",
  "reklamni_tekst_baner" : "",
  "cena_na_vklop" : "",
  "opis" : "Phone Call Mobile App",
  "opis_tip_prikljucka_vticnice" : "Schuko 230V@3,6 kW"
}, {
  "id" : 374,
  "name" : "Šoštanj na stari bencinski DC - Schuko R",
  "address" : "Kajuhova cesta",
  "town" : "Šoštanj ",
  "lat" : 46.377782,
  "lng" : 15.047311,
  "deluje" : 1,
  "cena_KW" : "",
  "reklamni_tekst_baner" : "",
  "cena_na_vklop" : "",
  "opis" : "Phone Call Mobile App",
  "opis_tip_prikljucka_vticnice" : "Schuko 230V@3,6 kW"
}, {
  "id" : 375,
  "name" : "Šoštanj na stari bencinski DC - CHAdeMO",
  "address" : "Kajuhova cesta",
  "town" : "Šoštanj",
  "lat" : 46.377782,
  "lng" : 15.047311,
  "deluje" : 1,
  "cena_KW" : "",
  "reklamni_tekst_baner" : "",
  "cena_na_vklop" : "0.00",
  "opis" : "Phone Call Mobile App",
  "opis_tip_prikljucka_vticnice" : "CHAdeMO DCFC@15 kW"
}, {
  "id" : 376,
  "name" : "Šoštanj na stari bencinski DC - CCS Combo",
  "address" : "Kajuhova cesta",
  "town" : "Šoštanj",
  "lat" : 46.377782,
  "lng" : 15.047311,
  "deluje" : 1,
  "cena_KW" : "",
  "reklamni_tekst_baner" : "",
  "cena_na_vklop" : "0.00",
  "opis" : "Phone Call Mobile App",
  "opis_tip_prikljucka_vticnice" : "CCS Combo@15 kW"
}, {
  "id" : 377,
  "name" : "Topolšica pri Gasilskem domu  Schuko L",
  "address" : "Topolščica",
  "town" : "Šoštanj",
  "lat" : 46.401155,
  "lng" : 15.019725,
  "deluje" : 1,
  "cena_KW" : "",
  "reklamni_tekst_baner" : "",
  "cena_na_vklop" : "",
  "opis" : "Phone Call Mobile App",
  "opis_tip_prikljucka_vticnice" : "Schuko 230V@3,6 kW"
}, {
  "id" : 378,
  "name" : "Topolšica pri Gasilskem domu Schuko R",
  "address" : "Topolščica",
  "town" : "Šoštanj",
  "lat" : 46.401155,
  "lng" : 15.019725,
  "deluje" : 1,
  "cena_KW" : "",
  "reklamni_tekst_baner" : "",
  "cena_na_vklop" : "",
  "opis" : "Phone Call Mobile App",
  "opis_tip_prikljucka_vticnice" : "Schuko 230V@3,6 kW"
}, {
  "id" : 379,
  "name" : "Topolšica pri Gasilskem domu DC - CHAdeMO",
  "address" : "Topolščica",
  "town" : "Šoštanj",
  "lat" : 46.401155,
  "lng" : 15.019725,
  "deluje" : 1,
  "cena_KW" : "",
  "reklamni_tekst_baner" : "",
  "cena_na_vklop" : "",
  "opis" : "Phone Call Mobile App",
  "opis_tip_prikljucka_vticnice" : "CHAdeMO DCFC@10 kW"
}, {
  "id" : 380,
  "name" : "Topolšica pri Gasilskem domu DC - CCS Combo",
  "address" : "Topolščica",
  "town" : "Šoštanj",
  "lat" : 46.401155,
  "lng" : 15.019725,
  "deluje" : 1,
  "cena_KW" : "",
  "reklamni_tekst_baner" : "",
  "cena_na_vklop" : "",
  "opis" : "Phone Call Mobile App",
  "opis_tip_prikljucka_vticnice" : "CCS Combo@10 kW"
}, {
  "id" : 381,
  "name" : "Občina Šoštanj Prešernov trg - Schuko L",
  "address" : "Prešernov trg",
  "town" : "Šoštanj",
  "lat" : 46.37682,
  "lng" : 15.046607,
  "deluje" : 1,
  "cena_KW" : "",
  "reklamni_tekst_baner" : "",
  "cena_na_vklop" : "",
  "opis" : "Phone Call Mobile App",
  "opis_tip_prikljucka_vticnice" : "Schuko 230V@3,6 kW"
}, {
  "id" : 382,
  "name" : "Občina Šoštanj Prešernov trg - Schuko R",
  "address" : "Prešernov trg",
  "town" : "Šoštanj",
  "lat" : 46.37682,
  "lng" : 15.046607,
  "deluje" : 1,
  "cena_KW" : "",
  "reklamni_tekst_baner" : "",
  "cena_na_vklop" : "",
  "opis" : "Phone Call Mobile App",
  "opis_tip_prikljucka_vticnice" : "Schuko 230V@3,6 kW"
}, {
  "id" : 383,
  "name" : "Občina Šoštanj Prešernov trg - Type 2",
  "address" : "Prešernov trg",
  "town" : "Šoštanj",
  "lat" : 46.37682,
  "lng" : 15.046607,
  "deluje" : 1,
  "cena_KW" : "",
  "reklamni_tekst_baner" : "",
  "cena_na_vklop" : "",
  "opis" : "Phone Call Mobile App",
  "opis_tip_prikljucka_vticnice" : "Mennekes Type 2 Socket@10 kW"
}, {
  "id" : 388,
  "name" : "Občina Šentjur - Schuko L",
  "address" : "Drofenikova ulica",
  "town" : "Šentjur",
  "lat" : 46.214939,
  "lng" : 15.391835,
  "deluje" : 1,
  "cena_KW" : "",
  "reklamni_tekst_baner" : "",
  "cena_na_vklop" : "",
  "opis" : "Phone Call Mobile App",
  "opis_tip_prikljucka_vticnice" : "Schuko 230V@3,6 kW"
}, {
  "id" : 389,
  "name" : "Občina Šentjur - Schuko R",
  "address" : "Drofenikova ulica",
  "town" : "Šentjur",
  "lat" : 46.214939,
  "lng" : 15.391835,
  "deluje" : 1,
  "cena_KW" : "",
  "reklamni_tekst_baner" : "",
  "cena_na_vklop" : "",
  "opis" : "Phone Call Mobile App",
  "opis_tip_prikljucka_vticnice" : "Schuko 230V@3,6 kW"
}, {
  "id" : 390,
  "name" : "Občina Šentjur DC - CHAdeMO",
  "address" : "Drofenikova ulica",
  "town" : "Šentjur",
  "lat" : 46.214939,
  "lng" : 15.391835,
  "deluje" : 1,
  "cena_KW" : "",
  "reklamni_tekst_baner" : "",
  "cena_na_vklop" : "",
  "opis" : "Phone Call Mobile App",
  "opis_tip_prikljucka_vticnice" : "CHAdeMO DCFC@15 kW"
}, {
  "id" : 391,
  "name" : "Občina Šentjur DC - CCS Combo",
  "address" : "Drofenikova ulica",
  "town" : "Šentjur",
  "lat" : 46.214939,
  "lng" : 15.391835,
  "deluje" : 1,
  "cena_KW" : "",
  "reklamni_tekst_baner" : "",
  "cena_na_vklop" : "",
  "opis" : "Phone Call Mobile App",
  "opis_tip_prikljucka_vticnice" : "CCS Combo@15 kW"
}, {
  "id" : 393,
  "name" : "Ravne, Dobja vas DC CHAdeMO",
  "address" : "Dobja vas",
  "town" : "Dobja vas",
  "lat" : 46.544174,
  "lng" : 14.943545,
  "deluje" : 1,
  "cena_KW" : "",
  "reklamni_tekst_baner" : "",
  "cena_na_vklop" : "",
  "opis" : "Button",
  "opis_tip_prikljucka_vticnice" : "CHAdeMO DCFC@10 kW"
}, {
  "id" : 394,
  "name" : "Ravne, Dobja vas DC CCS",
  "address" : "Dobja vas",
  "town" : "Dobja vas",
  "lat" : 46.544174,
  "lng" : 14.943545,
  "deluje" : 1,
  "cena_KW" : "",
  "reklamni_tekst_baner" : "",
  "cena_na_vklop" : "",
  "opis" : "Button",
  "opis_tip_prikljucka_vticnice" : "CCS Combo@10 kW"
}, {
  "id" : 395,
  "name" : "Ravne, Dobja vas Schuko R",
  "address" : "Dobja vas",
  "town" : "Dobja vas",
  "lat" : 46.544174,
  "lng" : 14.943545,
  "deluje" : 1,
  "cena_KW" : "",
  "reklamni_tekst_baner" : "",
  "cena_na_vklop" : "",
  "opis" : "Plug & Charge",
  "opis_tip_prikljucka_vticnice" : "Schuko 230V@3,6 kW"
}, {
  "id" : 396,
  "name" : "Ravne, Dobja vas Schuko L",
  "address" : "Dobja vas",
  "town" : "Dobja vas",
  "lat" : 46.544174,
  "lng" : 14.943545,
  "deluje" : 1,
  "cena_KW" : "",
  "reklamni_tekst_baner" : "",
  "cena_na_vklop" : "",
  "opis" : "Plug & Charge",
  "opis_tip_prikljucka_vticnice" : "Schuko 230V@3,6 kW"
}, {
  "id" : 397,
  "name" : "Kotlje CHAdeMO",
  "address" : "Kotlje",
  "town" : "Kotlje",
  "lat" : 46.521275,
  "lng" : 14.986515,
  "deluje" : 1,
  "cena_KW" : "",
  "reklamni_tekst_baner" : "",
  "cena_na_vklop" : "",
  "opis" : "Button",
  "opis_tip_prikljucka_vticnice" : "CHAdeMO DCFC@10 kW"
}, {
  "id" : 398,
  "name" : "Kotlje DC CCS",
  "address" : "Kotlje",
  "town" : "Kotlje",
  "lat" : 46.521304,
  "lng" : 14.98658,
  "deluje" : 1,
  "cena_KW" : "",
  "reklamni_tekst_baner" : "",
  "cena_na_vklop" : "",
  "opis" : "Button",
  "opis_tip_prikljucka_vticnice" : "CCS Combo@10 kW"
}, {
  "id" : 399,
  "name" : "Kotlje Schuko R",
  "address" : "Kotlje",
  "town" : "Kotlje",
  "lat" : 46.521304,
  "lng" : 14.986515,
  "deluje" : 1,
  "cena_KW" : "",
  "reklamni_tekst_baner" : "",
  "cena_na_vklop" : "",
  "opis" : "Button",
  "opis_tip_prikljucka_vticnice" : "Schuko 230V@3,6 kW"
}, {
  "id" : 400,
  "name" : "Kotlje Schuko L",
  "address" : "Kotlje",
  "town" : "Kotlje",
  "lat" : 46.521297,
  "lng" : 14.986569,
  "deluje" : 1,
  "cena_KW" : "",
  "reklamni_tekst_baner" : "",
  "cena_na_vklop" : "",
  "opis" : "Button",
  "opis_tip_prikljucka_vticnice" : "Schuko 230V@3,6 kW"
}, {
  "id" : 413,
  "name" : "Bistrica, Kety EMMI d. o. o, Mennekes",
  "address" : "Kolodvorska ulica",
  "town" : "Slovenska Bistrica",
  "lat" : 46.389455,
  "lng" : 15.583349,
  "deluje" : 1,
  "cena_KW" : "0.230",
  "reklamni_tekst_baner" : "",
  "cena_na_vklop" : "0.10",
  "opis" : "Phone Call Mobile App",
  "opis_tip_prikljucka_vticnice" : "Mennekes Type 2 Socket@22 kW"
}, {
  "id" : 414,
  "name" : "Bistrica, Kety EMMI d. o. o, Schuko L",
  "address" : "Kolodvorska ulica",
  "town" : "Slovenska Bistrica",
  "lat" : 46.389455,
  "lng" : 15.583349,
  "deluje" : 1,
  "cena_KW" : "0.230",
  "reklamni_tekst_baner" : "",
  "cena_na_vklop" : "0.10",
  "opis" : "Phone Call Mobile App",
  "opis_tip_prikljucka_vticnice" : "Schuko 230V@3,6 kW"
}, {
  "id" : 415,
  "name" : "Bistrica, Kety EMMI d. o. o, Schuko R",
  "address" : "Kolodvorska ulica",
  "town" : "Slovenska Bistrica",
  "lat" : 46.389455,
  "lng" : 15.583349,
  "deluje" : 1,
  "cena_KW" : "0.230",
  "reklamni_tekst_baner" : "",
  "cena_na_vklop" : "0.10",
  "opis" : "Phone Call Mobile App",
  "opis_tip_prikljucka_vticnice" : "Schuko 230V@3,6 kW"
}, {
  "id" : 419,
  "name" : "Slovenska Bistrica, Športna dvorana , Schuko L",
  "address" : "Partizanska ulica",
  "town" : "Slovenska Bistrica",
  "lat" : 46.394998,
  "lng" : 15.564355,
  "deluje" : 1,
  "cena_KW" : "",
  "reklamni_tekst_baner" : "",
  "cena_na_vklop" : "",
  "opis" : "Phone Call Mobile App",
  "opis_tip_prikljucka_vticnice" : "Schuko 230V@3,6 kW"
}, {
  "id" : 420,
  "name" : "Slovenska Bistrica, Športna dvorana , Schuko R",
  "address" : "Partizanska ulica",
  "town" : "Slovenska Bistrica",
  "lat" : 46.394998,
  "lng" : 15.564355,
  "deluje" : 1,
  "cena_KW" : "",
  "reklamni_tekst_baner" : "",
  "cena_na_vklop" : "",
  "opis" : "Phone Call Mobile App",
  "opis_tip_prikljucka_vticnice" : "Schuko 230V@3,6 kW"
}, {
  "id" : 421,
  "name" : "Slovenska Bistrica, Športna dvorana , Type 2",
  "address" : "Partizanska ulica",
  "town" : "Slovenska Bistrica",
  "lat" : 46.394998,
  "lng" : 15.564355,
  "deluje" : 1,
  "cena_KW" : "",
  "reklamni_tekst_baner" : "",
  "cena_na_vklop" : "",
  "opis" : "Phone Call Mobile App",
  "opis_tip_prikljucka_vticnice" : "Mennekes Type 2 Socket@15 kW"
}, {
  "id" : 422,
  "name" : "Občina Slovenska Bistrica pri gradu DC - Schuko L",
  "address" : "Grajska ulica",
  "town" : "Slovenska Bistrica",
  "lat" : 46.39371,
  "lng" : 15.570023,
  "deluje" : 1,
  "cena_KW" : "",
  "reklamni_tekst_baner" : "",
  "cena_na_vklop" : "",
  "opis" : "Phone Call Mobile App",
  "opis_tip_prikljucka_vticnice" : "Schuko 230V@3,6 kW"
}, {
  "id" : 423,
  "name" : "Občina Slovenska Bistrica pri gradu DC - Schuko R",
  "address" : "Grajska ulica",
  "town" : "Slovenska Bistrica",
  "lat" : 46.393699,
  "lng" : 15.570034,
  "deluje" : 1,
  "cena_KW" : "",
  "reklamni_tekst_baner" : "",
  "cena_na_vklop" : "",
  "opis" : "Phone Call Mobile App",
  "opis_tip_prikljucka_vticnice" : "Schuko 230V@3,6 kW"
}, {
  "id" : 424,
  "name" : "Občina Slovenska Bistrica pri gradu DC - CHAdeMO",
  "address" : "Grajska ulica",
  "town" : "Slovenska Bistrica",
  "lat" : 46.393687,
  "lng" : 15.570039,
  "deluje" : 1,
  "cena_KW" : "",
  "reklamni_tekst_baner" : "",
  "cena_na_vklop" : "",
  "opis" : "Phone Call Mobile App",
  "opis_tip_prikljucka_vticnice" : "CHAdeMO DCFC@10 kW"
}, {
  "id" : 425,
  "name" : "Občina Slovenska Bistrica pri gradu DC - CCS Combo",
  "address" : "Grajska ulica",
  "town" : "Slovenska Bistrica",
  "lat" : 46.393703,
  "lng" : 15.570034,
  "deluje" : 1,
  "cena_KW" : "",
  "reklamni_tekst_baner" : "",
  "cena_na_vklop" : "",
  "opis" : "Phone Call Mobile App",
  "opis_tip_prikljucka_vticnice" : "CCS Combo@10 kW"
}, {
  "id" : 426,
  "name" : "Slov. Bistrica KS Sp.Polskava Schuko L",
  "address" : "Spodnja Polskava",
  "town" : "Spodnja Polskava",
  "lat" : 46.412908,
  "lng" : 15.638553,
  "deluje" : 1,
  "cena_KW" : "",
  "reklamni_tekst_baner" : "",
  "cena_na_vklop" : "",
  "opis" : "Phone Call Mobile App",
  "opis_tip_prikljucka_vticnice" : "Schuko 230V@3,6 kW"
}, {
  "id" : 427,
  "name" : "Slov. Bistrica KS Sp.Polskava Schuko R",
  "address" : "Spodnja Polskava",
  "town" : "Spodnja Polskava",
  "lat" : 46.412908,
  "lng" : 15.638553,
  "deluje" : 1,
  "cena_KW" : "",
  "reklamni_tekst_baner" : "",
  "cena_na_vklop" : "",
  "opis" : "Phone Call Mobile App",
  "opis_tip_prikljucka_vticnice" : "Schuko 230V@3,6 kW"
}, {
  "id" : 428,
  "name" : "Slov. Bistrica KS Sp.Polskava Mennekes",
  "address" : "Spodnja Polskava",
  "town" : "Spodnja Polskava",
  "lat" : 46.412908,
  "lng" : 15.638553,
  "deluje" : 1,
  "cena_KW" : "",
  "reklamni_tekst_baner" : "",
  "cena_na_vklop" : "",
  "opis" : "Phone Call Mobile App",
  "opis_tip_prikljucka_vticnice" : "Mennekes Type 2 Socket@15 kW"
}, {
  "id" : 439,
  "name" : "Kidricevo Boxmark Schuko L",
  "address" : "Industrijsko naselje",
  "town" : "Kidričevo",
  "lat" : 46.391477,
  "lng" : 15.797411,
  "deluje" : 1,
  "cena_KW" : "",
  "reklamni_tekst_baner" : "",
  "cena_na_vklop" : "",
  "opis" : "Phone Call Mobile App",
  "opis_tip_prikljucka_vticnice" : "Schuko 230V@2 kW"
}, {
  "id" : 440,
  "name" : "Kidricevo Boxmark Schuko R",
  "address" : "Industrijsko naselje",
  "town" : "Kidričevo",
  "lat" : 46.391477,
  "lng" : 15.797411,
  "deluje" : 1,
  "cena_KW" : "",
  "reklamni_tekst_baner" : "",
  "cena_na_vklop" : "",
  "opis" : "Phone Call Mobile App",
  "opis_tip_prikljucka_vticnice" : "Schuko 230V@2 kW"
}, {
  "id" : 441,
  "name" : "Kidricevo Boxmark Type 2",
  "address" : "Industrijsko naselje",
  "town" : "Kidričevo",
  "lat" : 46.391477,
  "lng" : 15.797411,
  "deluje" : 1,
  "cena_KW" : "",
  "reklamni_tekst_baner" : "",
  "cena_na_vklop" : "",
  "opis" : "Phone Call Mobile App",
  "opis_tip_prikljucka_vticnice" : "Mennekes Type 2 Socket@10 kW"
}, {
  "id" : 442,
  "name" : "Kidricevo pri OS Schuko L",
  "address" : "Kajuhova ulica",
  "town" : "Kidričevo",
  "lat" : 46.406901,
  "lng" : 15.794629,
  "deluje" : 1,
  "cena_KW" : "",
  "reklamni_tekst_baner" : "",
  "cena_na_vklop" : "",
  "opis" : "Phone Call Mobile App",
  "opis_tip_prikljucka_vticnice" : "Schuko 230V@2 kW"
}, {
  "id" : 443,
  "name" : "Kidricevo pri OS Schuko R",
  "address" : "Kajuhova ulica",
  "town" : "Kidričevo",
  "lat" : 46.406901,
  "lng" : 15.794629,
  "deluje" : 1,
  "cena_KW" : "",
  "reklamni_tekst_baner" : "",
  "cena_na_vklop" : "",
  "opis" : "Phone Call Mobile App",
  "opis_tip_prikljucka_vticnice" : "Schuko 230V@2 kW"
}, {
  "id" : 444,
  "name" : "Kidricevo pri OS Type 2",
  "address" : "Kajuhova ulica",
  "town" : "Kidričevo",
  "lat" : 46.406901,
  "lng" : 15.794629,
  "deluje" : 1,
  "cena_KW" : "",
  "reklamni_tekst_baner" : "",
  "cena_na_vklop" : "",
  "opis" : "Phone Call Mobile App",
  "opis_tip_prikljucka_vticnice" : "Mennekes Type 2 Socket@10kW"
}, {
  "id" : 445,
  "name" : "Kidricevo, Cirkovce, Schuko L",
  "address" : "Cirkovce",
  "town" : "Cirkovce",
  "lat" : 46.394183,
  "lng" : 15.728341,
  "deluje" : 1,
  "cena_KW" : "",
  "reklamni_tekst_baner" : "",
  "cena_na_vklop" : "",
  "opis" : "Phone Call Mobile App",
  "opis_tip_prikljucka_vticnice" : "Schuko 230V@2 kW"
}, {
  "id" : 446,
  "name" : "Žalec DC za Hotelom CHAdeMO",
  "address" : "Mestni trg",
  "town" : "Žalec",
  "lat" : 46.254283,
  "lng" : 15.163185,
  "deluje" : 1,
  "cena_KW" : "0.220",
  "reklamni_tekst_baner" : "",
  "cena_na_vklop" : "0.20",
  "opis" : "Phone Call Mobile App",
  "opis_tip_prikljucka_vticnice" : "CHAdeMO DCFC@10 kW"
}, {
  "id" : 447,
  "name" : "Implera Pisarna SB AC Schuko L",
  "address" : "Trg svobode",
  "town" : "Slovenska Bistrica",
  "lat" : 46.392344,
  "lng" : 15.572555,
  "deluje" : 1,
  "cena_KW" : "0.000",
  "reklamni_tekst_baner" : "",
  "cena_na_vklop" : "0.00",
  "opis" : "Phone Call Mobile App",
  "opis_tip_prikljucka_vticnice" : "Schuko 230V@2 kW"
}, {
  "id" : 448,
  "name" : "Implera Pisarna SB AC Type 2",
  "address" : "Trg svobode",
  "town" : "Slovenska Bistrica",
  "lat" : 46.392344,
  "lng" : 15.572555,
  "deluje" : 1,
  "cena_KW" : "0.100",
  "reklamni_tekst_baner" : "",
  "cena_na_vklop" : "0.10",
  "opis" : "Phone Call Mobile App",
  "opis_tip_prikljucka_vticnice" : "Mennekes Type 2 Socket@15 kW"
}, {
  "id" : 449,
  "name" : "Implera Pisarna SB AC Schuko R",
  "address" : "Trg svobode",
  "town" : "Slovenska Bistrica",
  "lat" : 46.392344,
  "lng" : 15.572555,
  "deluje" : 1,
  "cena_KW" : "",
  "reklamni_tekst_baner" : "",
  "cena_na_vklop" : "0.10",
  "opis" : "Phone Call Mobile App",
  "opis_tip_prikljucka_vticnice" : "Schuko 230V@2 kW"
}, {
  "id" : 454,
  "name" : "Kidričevo občina AC Type 2",
  "address" : "Kopališka ulica",
  "town" : "Kidričevo",
  "lat" : 46.403504,
  "lng" : 15.788986,
  "deluje" : 1,
  "cena_KW" : "",
  "reklamni_tekst_baner" : "",
  "cena_na_vklop" : "",
  "opis" : "Phone Call Mobile App",
  "opis_tip_prikljucka_vticnice" : "Mennekes Type 2 Socket@10 kW"
}, {
  "id" : 455,
  "name" : "Kidričevo občina AC Schuko L",
  "address" : "Kopališka ulica",
  "town" : "Kidričevo",
  "lat" : 46.403504,
  "lng" : 15.788986,
  "deluje" : 1,
  "cena_KW" : "",
  "reklamni_tekst_baner" : "",
  "cena_na_vklop" : "",
  "opis" : "Phone Call Mobile App",
  "opis_tip_prikljucka_vticnice" : "Schuko 230V@2  kW"
}, {
  "id" : 456,
  "name" : "Kidričevo občina AC Schuko R",
  "address" : "Kopališka ulica",
  "town" : "Kidričevo",
  "lat" : 46.403504,
  "lng" : 15.788986,
  "deluje" : 1,
  "cena_KW" : "",
  "reklamni_tekst_baner" : "",
  "cena_na_vklop" : "",
  "opis" : "Phone Call Mobile App",
  "opis_tip_prikljucka_vticnice" : "Schuko 230V@2 kW"
}, {
  "id" : 457,
  "name" : "Kidričevo, Cirkovce, Schuko R",
  "address" : "Cirkovce",
  "town" : "Cirkovce",
  "lat" : 46.394183,
  "lng" : 15.728341,
  "deluje" : 1,
  "cena_KW" : "",
  "reklamni_tekst_baner" : "",
  "cena_na_vklop" : "",
  "opis" : "Phone Call Mobile App",
  "opis_tip_prikljucka_vticnice" : "Schuko 230V@2 kW"
}, {
  "id" : 458,
  "name" : "Kidričevo, Cirkovce Type 2",
  "address" : "Cirkovce",
  "town" : "Cirkovce",
  "lat" : 46.394183,
  "lng" : 15.728341,
  "deluje" : 1,
  "cena_KW" : "",
  "reklamni_tekst_baner" : "",
  "cena_na_vklop" : "",
  "opis" : "Phone Call Mobile App",
  "opis_tip_prikljucka_vticnice" : "Mennekes Type 2 Socket@10 kW"
}, {
  "id" : 461,
  "name" : "Radoboj DC Chademo",
  "address" : "Radoboj",
  "town" : "Radoboj",
  "lat" : 46.166556,
  "lng" : 15.920633,
  "deluje" : 1,
  "cena_KW" : "",
  "reklamni_tekst_baner" : "",
  "cena_na_vklop" : "",
  "opis" : "Phone Call Mobile App",
  "opis_tip_prikljucka_vticnice" : "CHAdeMO DCFC"
}, {
  "id" : 462,
  "name" : "Radoboj DC CCS Combo2",
  "address" : "Radoboj",
  "town" : "Radoboj",
  "lat" : 46.166556,
  "lng" : 15.920633,
  "deluje" : 1,
  "cena_KW" : "",
  "reklamni_tekst_baner" : "",
  "cena_na_vklop" : "",
  "opis" : "Phone Call Mobile App",
  "opis_tip_prikljucka_vticnice" : "CCS Combo"
}, {
  "id" : 464,
  "name" : "Radoboj Schuko L",
  "address" : "Radoboj",
  "town" : "Radoboj",
  "lat" : 46.166556,
  "lng" : 15.920633,
  "deluje" : 1,
  "cena_KW" : "",
  "reklamni_tekst_baner" : "",
  "cena_na_vklop" : "",
  "opis" : "Plug & Charge",
  "opis_tip_prikljucka_vticnice" : "Schuko 230V@3,6 kW"
}, {
  "id" : 465,
  "name" : "Radoboj Schuko D",
  "address" : "Radoboj",
  "town" : "Radoboj",
  "lat" : 46.166556,
  "lng" : 15.920633,
  "deluje" : 1,
  "cena_KW" : "",
  "reklamni_tekst_baner" : "",
  "cena_na_vklop" : "",
  "opis" : "Plug & Charge",
  "opis_tip_prikljucka_vticnice" : "Schuko 230V@3,6 kW"
}, {
  "id" : 470,
  "name" : "Kidričevo PAN DC CHAdeMO",
  "address" : "Tovarniška cesta",
  "town" : "Kidričevo",
  "lat" : 46.404087,
  "lng" : 15.798003,
  "deluje" : 1,
  "cena_KW" : "0.180",
  "reklamni_tekst_baner" : "",
  "cena_na_vklop" : "0.20",
  "opis" : "Phone Call Mobile App",
  "opis_tip_prikljucka_vticnice" : "CHAdeMO DCFC@10 kW"
}, {
  "id" : 471,
  "name" : "Kidričevo PAN DC CCS Combo2",
  "address" : "Tovarniška cesta",
  "town" : "Kidričevo",
  "lat" : 46.404087,
  "lng" : 15.798003,
  "deluje" : 1,
  "cena_KW" : "0.180",
  "reklamni_tekst_baner" : "",
  "cena_na_vklop" : "0.20",
  "opis" : "Phone Call Mobile App",
  "opis_tip_prikljucka_vticnice" : "CCS Combo@10 kW"
}, {
  "id" : 472,
  "name" : "Kidričevo PAN Schuko L",
  "address" : "Tovarniška cesta",
  "town" : "Kidričevo",
  "lat" : 46.404087,
  "lng" : 15.798003,
  "deluje" : 1,
  "cena_KW" : "",
  "reklamni_tekst_baner" : "",
  "cena_na_vklop" : "",
  "opis" : "Phone Call Mobile App",
  "opis_tip_prikljucka_vticnice" : "Schuko 230V@3,6 kW"
}, {
  "id" : 473,
  "name" : "Kidričevo PAN Schuko R",
  "address" : "Tovarniška cesta",
  "town" : "Kidričevo",
  "lat" : 46.404087,
  "lng" : 15.798003,
  "deluje" : 1,
  "cena_KW" : "",
  "reklamni_tekst_baner" : "",
  "cena_na_vklop" : "",
  "opis" : "Phone Call Mobile App",
  "opis_tip_prikljucka_vticnice" : "Schuko 230V@3,6 kW"
}, {
  "id" : 478,
  "name" : "Žalec DC za Hotelom CCS ",
  "address" : "Mestni trg",
  "town" : "Žalec",
  "lat" : 46.254283,
  "lng" : 15.163185,
  "deluje" : 1,
  "cena_KW" : "0.220",
  "reklamni_tekst_baner" : "",
  "cena_na_vklop" : "0.20",
  "opis" : "Phone Call Mobile App",
  "opis_tip_prikljucka_vticnice" : "CCS Combo@10 kW"
}, {
  "id" : 479,
  "name" : "Žalec DC za Hotelom Schuko L",
  "address" : "Mestni trg",
  "town" : "Žalec",
  "lat" : 46.254283,
  "lng" : 15.163185,
  "deluje" : 1,
  "cena_KW" : "",
  "reklamni_tekst_baner" : "",
  "cena_na_vklop" : "",
  "opis" : "Phone Call Mobile App",
  "opis_tip_prikljucka_vticnice" : "Schuko 230V@2 kW"
}, {
  "id" : 480,
  "name" : "Žalec DC za Hotelom Schuko R",
  "address" : "Mestni trg",
  "town" : "Žalec",
  "lat" : 46.254283,
  "lng" : 15.163185,
  "deluje" : 1,
  "cena_KW" : "",
  "reklamni_tekst_baner" : "",
  "cena_na_vklop" : "",
  "opis" : "Phone Call Mobile App",
  "opis_tip_prikljucka_vticnice" : "Schuko 230V@2 kW"
}, {
  "id" : 510,
  "name" : "Podčetrtek Športna dvorana CHAdeMO",
  "address" : "Zdraviliška cesta",
  "town" : "Podčetrtek",
  "lat" : 46.154563,
  "lng" : 15.607579,
  "deluje" : 1,
  "cena_KW" : "",
  "reklamni_tekst_baner" : "",
  "cena_na_vklop" : "",
  "opis" : "Phone Call Mobile App",
  "opis_tip_prikljucka_vticnice" : "CHAdeMO DCFC@15 kW"
}, {
  "id" : 511,
  "name" : "Podčetrtek Športna dvorana CCS",
  "address" : "Zdraviliška cesta",
  "town" : "Podčetrtek",
  "lat" : 46.154563,
  "lng" : 15.607579,
  "deluje" : 1,
  "cena_KW" : "",
  "reklamni_tekst_baner" : "",
  "cena_na_vklop" : "",
  "opis" : "Phone Call Mobile App",
  "opis_tip_prikljucka_vticnice" : "CCS Combo@15 kW"
}, {
  "id" : 512,
  "name" : "Podčetrtek Športna dvorana Schuko L",
  "address" : "Zdraviliška cesta",
  "town" : "Podčetrtek",
  "lat" : 46.154563,
  "lng" : 15.607579,
  "deluje" : 1,
  "cena_KW" : "",
  "reklamni_tekst_baner" : "",
  "cena_na_vklop" : "",
  "opis" : "Phone Call Mobile App",
  "opis_tip_prikljucka_vticnice" : "Schuko 230V@2 kW"
}, {
  "id" : 513,
  "name" : "Podčetrtek Športna dvorana Schuko D",
  "address" : "Zdraviliška cesta",
  "town" : "Podčetrtek",
  "lat" : 46.154563,
  "lng" : 15.607579,
  "deluje" : 1,
  "cena_KW" : "",
  "reklamni_tekst_baner" : "",
  "cena_na_vklop" : "",
  "opis" : "Phone Call Mobile App",
  "opis_tip_prikljucka_vticnice" : "Schuko 230V@2 kW"
}, {
  "id" : 514,
  "name" : "Pragersko_KUD - Schuko L",
  "address" : "Ptujska cesta",
  "town" : "Pragersko",
  "lat" : 46.393269,
  "lng" : 15.661654,
  "deluje" : 1,
  "cena_KW" : "",
  "reklamni_tekst_baner" : "",
  "cena_na_vklop" : "",
  "opis" : "Phone Call Mobile App",
  "opis_tip_prikljucka_vticnice" : "Schuko 230V@3,6 kW"
}, {
  "id" : 515,
  "name" : "Pragersko_KUD -Schuko R",
  "address" : "Ptujska cesta",
  "town" : "Pragersko",
  "lat" : 46.393269,
  "lng" : 15.661654,
  "deluje" : 1,
  "cena_KW" : "",
  "reklamni_tekst_baner" : "",
  "cena_na_vklop" : "",
  "opis" : "Phone Call Mobile App",
  "opis_tip_prikljucka_vticnice" : "Schuko 230V@3,6 kW"
}, {
  "id" : 516,
  "name" : "Pragersko_KUD - DC chademo",
  "address" : "Ptujska cesta",
  "town" : "Pragersko",
  "lat" : 46.393269,
  "lng" : 15.661654,
  "deluje" : 1,
  "cena_KW" : "",
  "reklamni_tekst_baner" : "",
  "cena_na_vklop" : "0.10",
  "opis" : "Phone Call Mobile App",
  "opis_tip_prikljucka_vticnice" : "CHAdeMO DCFC@15 kW"
}, {
  "id" : 517,
  "name" : "Pragersko_KUD - DC CCS combo",
  "address" : "Ptujska cesta",
  "town" : "Pragersko",
  "lat" : 46.393269,
  "lng" : 15.661654,
  "deluje" : 1,
  "cena_KW" : "",
  "reklamni_tekst_baner" : "",
  "cena_na_vklop" : "",
  "opis" : "Phone Call Mobile App",
  "opis_tip_prikljucka_vticnice" : "CCS Combo@15 kW"
}, {
  "id" : 519,
  "name" : "Podčetrtek Pristava pri Mestinju CHAdeMO",
  "address" : "Pristava pri Mestinju",
  "town" : "Pristava pri Mestinju",
  "lat" : 46.193045,
  "lng" : 15.598244,
  "deluje" : 1,
  "cena_KW" : "",
  "reklamni_tekst_baner" : "",
  "cena_na_vklop" : "",
  "opis" : "Phone Call Mobile App",
  "opis_tip_prikljucka_vticnice" : "CHAdeMO DCFC@15 kW"
}, {
  "id" : 520,
  "name" : "Podčetrtek Pristava pri Mestinju CCS",
  "address" : "Pristava pri Mestinju",
  "town" : "Pristava pri Mestinju",
  "lat" : 46.193045,
  "lng" : 15.598244,
  "deluje" : 1,
  "cena_KW" : "",
  "reklamni_tekst_baner" : "",
  "cena_na_vklop" : "",
  "opis" : "Phone Call Mobile App",
  "opis_tip_prikljucka_vticnice" : "CCS Combo@15 kW"
}, {
  "id" : 521,
  "name" : "Podčetrtek Pristava pri Mestinju Schuko L",
  "address" : "Pristava pri Mestinju",
  "town" : "Pristava pri Mestinju",
  "lat" : 46.193045,
  "lng" : 15.598244,
  "deluje" : 1,
  "cena_KW" : "",
  "reklamni_tekst_baner" : "",
  "cena_na_vklop" : "",
  "opis" : "Phone Call Mobile App",
  "opis_tip_prikljucka_vticnice" : "Schuko 230V@2 kW"
}, {
  "id" : 522,
  "name" : "Podčetrtek Pristava pri Mestinju Schuko D",
  "address" : "Pristava pri Mestinju",
  "town" : "Pristava pri Mestinju",
  "lat" : 46.193045,
  "lng" : 15.598244,
  "deluje" : 1,
  "cena_KW" : "",
  "reklamni_tekst_baner" : "",
  "cena_na_vklop" : "",
  "opis" : "Phone Call Mobile App",
  "opis_tip_prikljucka_vticnice" : "Schuko 230V@2 kW"
}, {
  "id" : 523,
  "name" : "Žužemberk Gasilski dom CHAdeMO",
  "address" : "Vrti",
  "town" : "Žužemberk",
  "lat" : 45.831404,
  "lng" : 14.930066,
  "deluje" : 1,
  "cena_KW" : "",
  "reklamni_tekst_baner" : "",
  "cena_na_vklop" : "",
  "opis" : "Phone Call Mobile App",
  "opis_tip_prikljucka_vticnice" : "CHAdeMO DCFC@10 kW"
}, {
  "id" : 524,
  "name" : "Žužemberk Gasilski dom CCS",
  "address" : "Vrti",
  "town" : "Žužemberk",
  "lat" : 45.831404,
  "lng" : 14.930066,
  "deluje" : 1,
  "cena_KW" : "",
  "reklamni_tekst_baner" : "",
  "cena_na_vklop" : "",
  "opis" : "Phone Call Mobile App",
  "opis_tip_prikljucka_vticnice" : "CCS Combo@10 kW"
}, {
  "id" : 525,
  "name" : "Žužemberk  Gasilski dom Schuko L",
  "address" : "Vrti",
  "town" : "Žužemberk",
  "lat" : 45.831404,
  "lng" : 14.930066,
  "deluje" : 1,
  "cena_KW" : "",
  "reklamni_tekst_baner" : "",
  "cena_na_vklop" : "",
  "opis" : "Phone Call Mobile App",
  "opis_tip_prikljucka_vticnice" : "Schuko 230V@2 kW"
}, {
  "id" : 526,
  "name" : "Žužemberk  Gasilski dom Schuko D",
  "address" : "Vrti",
  "town" : "Žužemberk",
  "lat" : 45.831404,
  "lng" : 14.930066,
  "deluje" : 1,
  "cena_KW" : "",
  "reklamni_tekst_baner" : "",
  "cena_na_vklop" : "",
  "opis" : "Phone Call Mobile App",
  "opis_tip_prikljucka_vticnice" : "Schuko 230V@2 kW"
}, {
  "id" : 527,
  "name" : "Grad Podsreda DC CHAdeMO",
  "address" : "Podsreda",
  "town" : "Podsreda",
  "lat" : 46.028061,
  "lng" : 15.589926,
  "deluje" : 1,
  "cena_KW" : "",
  "reklamni_tekst_baner" : "",
  "cena_na_vklop" : "",
  "opis" : "Phone Call Mobile App",
  "opis_tip_prikljucka_vticnice" : "CHAdeMO DCFC@15 kW"
}, {
  "id" : 528,
  "name" : "Grad Podsreda DC CCS",
  "address" : "Podsreda",
  "town" : "Podsreda",
  "lat" : 46.028061,
  "lng" : 15.589926,
  "deluje" : 1,
  "cena_KW" : "",
  "reklamni_tekst_baner" : "",
  "cena_na_vklop" : "",
  "opis" : "Phone Call Mobile App",
  "opis_tip_prikljucka_vticnice" : "CCS Combo@15 kW"
}, {
  "id" : 529,
  "name" : "Grad Podsreda Schuko L",
  "address" : "Podsreda",
  "town" : "Podsreda",
  "lat" : 46.028061,
  "lng" : 15.589926,
  "deluje" : 1,
  "cena_KW" : "",
  "reklamni_tekst_baner" : "",
  "cena_na_vklop" : "",
  "opis" : "Phone Call Mobile App",
  "opis_tip_prikljucka_vticnice" : "Schuko 230V@2 kW"
}, {
  "id" : 530,
  "name" : "Grad Podsreda Schuko D",
  "address" : "Podsreda",
  "town" : "Podsreda",
  "lat" : 46.028061,
  "lng" : 15.589926,
  "deluje" : 1,
  "cena_KW" : "",
  "reklamni_tekst_baner" : "",
  "cena_na_vklop" : "",
  "opis" : "Phone Call Mobile App",
  "opis_tip_prikljucka_vticnice" : "Schuko 230V@2 kW"
}, {
  "id" : 531,
  "name" : "Kozje Podsreda Gasilski Dom  DC CHAdeMO",
  "address" : "Podsreda",
  "town" : "Podsreda",
  "lat" : 46.042831,
  "lng" : 15.591955,
  "deluje" : 1,
  "cena_KW" : "",
  "reklamni_tekst_baner" : "",
  "cena_na_vklop" : "",
  "opis" : "Phone Call Mobile App",
  "opis_tip_prikljucka_vticnice" : "CHAdeMO DCFC@10 kW"
}, {
  "id" : 532,
  "name" : "Kozje Podsreda Gasilski Dom  DC CCS",
  "address" : "Podsreda",
  "town" : "Podsreda",
  "lat" : 46.042831,
  "lng" : 15.591955,
  "deluje" : 1,
  "cena_KW" : "",
  "reklamni_tekst_baner" : "",
  "cena_na_vklop" : "",
  "opis" : "Phone Call Mobile App",
  "opis_tip_prikljucka_vticnice" : "CCS Combo@10 kW"
}, {
  "id" : 533,
  "name" : "Kozje Podsreda Gasilski Dom Schuko L",
  "address" : "Podsreda",
  "town" : "Podsreda",
  "lat" : 46.042831,
  "lng" : 15.591955,
  "deluje" : 1,
  "cena_KW" : "",
  "reklamni_tekst_baner" : "",
  "cena_na_vklop" : "",
  "opis" : "Phone Call Mobile App",
  "opis_tip_prikljucka_vticnice" : "Schuko 230V@2 kW"
}, {
  "id" : 534,
  "name" : "Kozje Podsreda Gasilski Dom Schuko R",
  "address" : "Podsreda",
  "town" : "Podsreda",
  "lat" : 46.042831,
  "lng" : 15.591955,
  "deluje" : 1,
  "cena_KW" : "",
  "reklamni_tekst_baner" : "",
  "cena_na_vklop" : "",
  "opis" : "Phone Call Mobile App",
  "opis_tip_prikljucka_vticnice" : "Schuko 230V@2 kW"
}, {
  "id" : 548,
  "name" : "Kozje avtobusna CHAdeMO",
  "address" : "Kozje",
  "town" : "Kozje",
  "lat" : 46.072983,
  "lng" : 15.555478,
  "deluje" : 1,
  "cena_KW" : "",
  "reklamni_tekst_baner" : "",
  "cena_na_vklop" : "",
  "opis" : "Phone Call Mobile App",
  "opis_tip_prikljucka_vticnice" : "CHAdeMO DCFC@10 kW"
}, {
  "id" : 549,
  "name" : "Kozje avtobusna CCS",
  "address" : "Kozje",
  "town" : "Kozje",
  "lat" : 46.072983,
  "lng" : 15.555478,
  "deluje" : 1,
  "cena_KW" : "",
  "reklamni_tekst_baner" : "",
  "cena_na_vklop" : "",
  "opis" : "Phone Call Mobile App",
  "opis_tip_prikljucka_vticnice" : "CCS Combo@10 kW"
}, {
  "id" : 550,
  "name" : "Kozje avtobusna Schuko L",
  "address" : "Kozje",
  "town" : "Kozje",
  "lat" : 46.072983,
  "lng" : 15.555478,
  "deluje" : 1,
  "cena_KW" : "",
  "reklamni_tekst_baner" : "",
  "cena_na_vklop" : "",
  "opis" : "Phone Call Mobile App",
  "opis_tip_prikljucka_vticnice" : "Schuko 230V@2 kW"
}, {
  "id" : 551,
  "name" : "Kozje avtobusna Schuko D",
  "address" : "Kozje",
  "town" : "Kozje",
  "lat" : 46.072983,
  "lng" : 15.555478,
  "deluje" : 1,
  "cena_KW" : "",
  "reklamni_tekst_baner" : "",
  "cena_na_vklop" : "",
  "opis" : "Phone Call Mobile App",
  "opis_tip_prikljucka_vticnice" : "Schuko 230V@2 kW"
}, {
  "id" : 594,
  "name" : "Črenšovci CHAdeMO DC",
  "address" : "Ulica Juša Kramarja",
  "town" : "Črenšovci",
  "lat" : 46.568822,
  "lng" : 16.294669,
  "deluje" : 1,
  "cena_KW" : "0.260",
  "reklamni_tekst_baner" : "",
  "cena_na_vklop" : "0.20",
  "opis" : "Phone Call Mobile App",
  "opis_tip_prikljucka_vticnice" : "CHAdeMO DCFC@10 kW"
}, {
  "id" : 595,
  "name" : "Črenšovci CCS DC",
  "address" : "Ulica Juša Kramarja",
  "town" : "Črenšovci",
  "lat" : 46.568822,
  "lng" : 16.294669,
  "deluje" : 1,
  "cena_KW" : "0.260",
  "reklamni_tekst_baner" : "",
  "cena_na_vklop" : "0.20",
  "opis" : "Phone Call Mobile App",
  "opis_tip_prikljucka_vticnice" : "CCS Combo@10 kW"
}, {
  "id" : 596,
  "name" : "Črenšovci Schuko L",
  "address" : "Ulica Juša Kramarja",
  "town" : "Črenšovci",
  "lat" : 46.568822,
  "lng" : 16.294669,
  "deluje" : 1,
  "cena_KW" : "",
  "reklamni_tekst_baner" : "",
  "cena_na_vklop" : "",
  "opis" : "Phone Call Mobile App",
  "opis_tip_prikljucka_vticnice" : "Schuko 230V@2 kW"
}, {
  "id" : 597,
  "name" : "Črenšovci Schuko R",
  "address" : "Ulica Juša Kramarja",
  "town" : "Črenšovci",
  "lat" : 46.568822,
  "lng" : 16.294669,
  "deluje" : 1,
  "cena_KW" : "",
  "reklamni_tekst_baner" : "",
  "cena_na_vklop" : "",
  "opis" : "Phone Call Mobile App",
  "opis_tip_prikljucka_vticnice" : "Schuko 230V@2 kW"
}, {
  "id" : 609,
  "name" : "DC  Rogašovci CHAdeMO",
  "address" : "Svetij jurij",
  "town" : "Rogašovci",
  "lat" : 46.798193,
  "lng" : 16.036305,
  "deluje" : 1,
  "cena_KW" : "0.220",
  "reklamni_tekst_baner" : "",
  "cena_na_vklop" : "0.20",
  "opis" : "Phone Call Mobile App",
  "opis_tip_prikljucka_vticnice" : "CHAdeMO DCFC@15 kW"
}, {
  "id" : 610,
  "name" : "DC Rogašovci CCS Combo",
  "address" : "Svetij jurij",
  "town" : "Rogašovci",
  "lat" : 46.798193,
  "lng" : 16.036305,
  "deluje" : 1,
  "cena_KW" : "0.220",
  "reklamni_tekst_baner" : "",
  "cena_na_vklop" : "0.20",
  "opis" : "Phone Call Mobile App",
  "opis_tip_prikljucka_vticnice" : "CCS Combo@15 kW"
}, {
  "id" : 611,
  "name" : "Rogašovci Schuko R",
  "address" : "Svetij jurij",
  "town" : "Rogašovci",
  "lat" : 46.798193,
  "lng" : 16.036305,
  "deluje" : 1,
  "cena_KW" : "",
  "reklamni_tekst_baner" : "",
  "cena_na_vklop" : "",
  "opis" : "Phone Call Mobile App",
  "opis_tip_prikljucka_vticnice" : "Schuko 230V@3,6 kW"
}, {
  "id" : 612,
  "name" : "Rogašovci Schuko L",
  "address" : "Svetij jurij",
  "town" : "Rogašovci",
  "lat" : 46.798193,
  "lng" : 16.036305,
  "deluje" : 1,
  "cena_KW" : "",
  "reklamni_tekst_baner" : "",
  "cena_na_vklop" : "",
  "opis" : "Phone Call Mobile App",
  "opis_tip_prikljucka_vticnice" : "Schuko 230V@3,6 kW"
}, {
  "id" : 617,
  "name" : "Hotel Tabor Maribor",
  "address" : "Ulica heroja Zidanška",
  "town" : "Maribor",
  "lat" : 46.550134,
  "lng" : 15.637117,
  "deluje" : 1,
  "cena_KW" : "",
  "reklamni_tekst_baner" : "",
  "cena_na_vklop" : "",
  "opis" : "Other",
  "opis_tip_prikljucka_vticnice" : "Schuko 230V@3,6 kW"
}, {
  "id" : 621,
  "name" : "Gasilski dom Radmirje Mennekes",
  "address" : "Radmirje",
  "town" : "Ljubno ob Savinji",
  "lat" : 46.324835,
  "lng" : 14.847047,
  "deluje" : 1,
  "cena_KW" : "",
  "reklamni_tekst_baner" : "",
  "cena_na_vklop" : "",
  "opis" : "Phone Call Mobile App",
  "opis_tip_prikljucka_vticnice" : "Mennekes Type 2 Socket@15 kW"
}, {
  "id" : 622,
  "name" : "Gasilski dom Radmirje Schuko L",
  "address" : "Radmirje",
  "town" : "Ljubno ob Savinji",
  "lat" : 46.324835,
  "lng" : 14.847047,
  "deluje" : 1,
  "cena_KW" : "",
  "reklamni_tekst_baner" : "",
  "cena_na_vklop" : "",
  "opis" : "Phone Call Mobile App",
  "opis_tip_prikljucka_vticnice" : "Schuko 230V@2 kW"
}, {
  "id" : 623,
  "name" : "Gasilski dom Radmirje Schuko R",
  "address" : "Radmirje",
  "town" : "Ljubno ob Savinji",
  "lat" : 46.324835,
  "lng" : 14.847047,
  "deluje" : 1,
  "cena_KW" : "",
  "reklamni_tekst_baner" : "",
  "cena_na_vklop" : "",
  "opis" : "Phone Call Mobile App",
  "opis_tip_prikljucka_vticnice" : "Schuko 230V@2 kW"
}, {
  "id" : 628,
  "name" : "Šentjernej Schuko L",
  "address" : "Trubarjeva cesta",
  "town" : "Šentjernej",
  "lat" : 45.844534,
  "lng" : 15.337102,
  "deluje" : 1,
  "cena_KW" : "",
  "reklamni_tekst_baner" : "",
  "cena_na_vklop" : "",
  "opis" : "Phone Call Mobile App",
  "opis_tip_prikljucka_vticnice" : "Schuko 230V@2 kW"
}, {
  "id" : 629,
  "name" : "Šentjernej Schuko D",
  "address" : "Trubarjeva cesta",
  "town" : "Šentjernej",
  "lat" : 45.844534,
  "lng" : 15.337102,
  "deluje" : 1,
  "cena_KW" : "",
  "reklamni_tekst_baner" : "",
  "cena_na_vklop" : "",
  "opis" : "Phone Call Mobile App",
  "opis_tip_prikljucka_vticnice" : "Schuko 230V@2 kW"
}, {
  "id" : 630,
  "name" : "Šentjernej CHAdeMO",
  "address" : "Trubarjeva cesta",
  "town" : "Šentjernej",
  "lat" : 45.844534,
  "lng" : 15.337102,
  "deluje" : 1,
  "cena_KW" : "0.230",
  "reklamni_tekst_baner" : "",
  "cena_na_vklop" : "0.20",
  "opis" : "Phone Call Mobile App",
  "opis_tip_prikljucka_vticnice" : "CHAdeMO DCFC@15 kW"
}, {
  "id" : 631,
  "name" : "Šentjernej CCS",
  "address" : "Trubarjeva cesta",
  "town" : "Šentjernej",
  "lat" : 45.844534,
  "lng" : 15.337102,
  "deluje" : 1,
  "cena_KW" : "0.230",
  "reklamni_tekst_baner" : "",
  "cena_na_vklop" : "0.20",
  "opis" : "Phone Call Mobile App",
  "opis_tip_prikljucka_vticnice" : "CCS Combo@15 kW"
}, {
  "id" : 650,
  "name" : "Črenšovci občina AC Schuko L",
  "address" : "Ulica Prekmurske čete",
  "town" : "Črenšovci",
  "lat" : 46.569296,
  "lng" : 16.293528,
  "deluje" : 1,
  "cena_KW" : "",
  "reklamni_tekst_baner" : "",
  "cena_na_vklop" : "",
  "opis" : "Phone Call Mobile App",
  "opis_tip_prikljucka_vticnice" : "Schuko 230V@2,0 kW"
}, {
  "id" : 651,
  "name" : "Črenšovci občina Type 2",
  "address" : "Ulica Prekmurske čete",
  "town" : "Črenšovci",
  "lat" : 46.569296,
  "lng" : 16.293528,
  "deluje" : 1,
  "cena_KW" : "",
  "reklamni_tekst_baner" : "",
  "cena_na_vklop" : "",
  "opis" : "Phone Call Mobile App",
  "opis_tip_prikljucka_vticnice" : "Mennekes Type 2 Socket@10 kW"
}, {
  "id" : 725,
  "name" : "Medvode dvorana DC CHAdeMO",
  "address" : "FINŽGARJEVA ULICA",
  "town" : "Medvode",
  "lat" : 46.146924,
  "lng" : 14.408801,
  "deluje" : 1,
  "cena_KW" : "",
  "reklamni_tekst_baner" : "",
  "cena_na_vklop" : "",
  "opis" : "Plug & Charge Phone Call Mobile App",
  "opis_tip_prikljucka_vticnice" : "CHAdeMO DCFC@15 kW"
}, {
  "id" : 726,
  "name" : "Medvode dvorana DC CCS",
  "address" : "FINŽGARJEVA ULICA",
  "town" : "Medvode",
  "lat" : 46.146924,
  "lng" : 14.408801,
  "deluje" : 1,
  "cena_KW" : "",
  "reklamni_tekst_baner" : "",
  "cena_na_vklop" : "",
  "opis" : "Plug & Charge Phone Call Mobile App",
  "opis_tip_prikljucka_vticnice" : "CCS Combo@15 kW"
}, {
  "id" : 727,
  "name" : "Športna dvorana Schuko D",
  "address" : "FINŽGARJEVA ULICA",
  "town" : "Medvode",
  "lat" : 46.146924,
  "lng" : 14.408801,
  "deluje" : 1,
  "cena_KW" : "",
  "reklamni_tekst_baner" : "",
  "cena_na_vklop" : "",
  "opis" : "Plug & Charge Phone Call Mobile App",
  "opis_tip_prikljucka_vticnice" : "Schuko 230V@3,6 kW"
}, {
  "id" : 728,
  "name" : "Športna dvorana Schuko L",
  "address" : "FINŽGARJEVA ULICA",
  "town" : "Medvode",
  "lat" : 46.146924,
  "lng" : 14.408801,
  "deluje" : 1,
  "cena_KW" : "",
  "reklamni_tekst_baner" : "",
  "cena_na_vklop" : "",
  "opis" : "Plug & Charge Phone Call Mobile App",
  "opis_tip_prikljucka_vticnice" : "Schuko 230V@3,6 kW"
}, {
  "id" : 729,
  "name" : "Ormož Hardek  Schuko L",
  "address" : "Hardek",
  "town" : "Ormož",
  "lat" : 46.409269,
  "lng" : 16.152711,
  "deluje" : 1,
  "cena_KW" : "",
  "reklamni_tekst_baner" : "",
  "cena_na_vklop" : "0.00",
  "opis" : "Phone Call Mobile App",
  "opis_tip_prikljucka_vticnice" : "Schuko 230V@2 kW"
}, {
  "id" : 730,
  "name" : "Ormož Hardek  Mennekes ",
  "address" : "Hardek",
  "town" : "Ormož",
  "lat" : 46.409259,
  "lng" : 16.152689,
  "deluje" : 1,
  "cena_KW" : "",
  "reklamni_tekst_baner" : "",
  "cena_na_vklop" : "0.00",
  "opis" : "Phone Call Mobile App",
  "opis_tip_prikljucka_vticnice" : "Mennekes Type 2 Socket@20 kW"
}, {
  "id" : 731,
  "name" : "Ormož Hardek  Schuko R",
  "address" : "Hardek",
  "town" : "Ormož",
  "lat" : 46.409273,
  "lng" : 16.152743,
  "deluje" : 1,
  "cena_KW" : "",
  "reklamni_tekst_baner" : "",
  "cena_na_vklop" : "0.00",
  "opis" : "Phone Call Mobile App",
  "opis_tip_prikljucka_vticnice" : "Schuko 230V@2 kW"
}, {
  "id" : 734,
  "name" : "Litija Elektro Ljubljana",
  "address" : "Ponoviška cesta",
  "town" : "Litija",
  "lat" : 46.058524,
  "lng" : 14.828399,
  "deluje" : 1,
  "cena_KW" : "",
  "reklamni_tekst_baner" : "",
  "cena_na_vklop" : "",
  "opis" : "RFID SMS Mobile App",
  "opis_tip_prikljucka_vticnice" : "Mennekes Type 2 Socket@20 kW"
}, {
  "id" : 735,
  "name" : "Litija Elektro Ljubljana",
  "address" : "Ponoviška cesta",
  "town" : "Litija",
  "lat" : 46.058524,
  "lng" : 14.828399,
  "deluje" : 1,
  "cena_KW" : "",
  "reklamni_tekst_baner" : "",
  "cena_na_vklop" : "",
  "opis" : "RFID SMS Mobile App",
  "opis_tip_prikljucka_vticnice" : "Mennekes Type 2 Socket@20 kW"
}, {
  "id" : 741,
  "name" : "Radoboj AC Type 2",
  "address" : "Radoboj",
  "town" : "Radoboj",
  "lat" : 46.166556,
  "lng" : 15.920633,
  "deluje" : 1,
  "cena_KW" : "",
  "reklamni_tekst_baner" : "",
  "cena_na_vklop" : "",
  "opis" : "Plug & Charge",
  "opis_tip_prikljucka_vticnice" : "Mennekes Type 2 Socket@22 kW"
}, {
  "id" : 756,
  "name" : "Avtohiša Lunežnik, Slovenska Bistrica",
  "address" : "Klopce ",
  "town" : "Slovenska Bistrica",
  "lat" : 46.414893,
  "lng" : 15.600783,
  "deluje" : 1,
  "cena_KW" : "",
  "reklamni_tekst_baner" : "",
  "cena_na_vklop" : "",
  "opis" : "Plug & Charge",
  "opis_tip_prikljucka_vticnice" : "Mennekes Type 2 Socket@20 kW"
}, {
  "id" : 760,
  "name" : "Gimnazija Kranj",
  "address" : "Koroška cesta",
  "town" : "Kranj",
  "lat" : 46.242936,
  "lng" : 14.354585,
  "deluje" : 1,
  "cena_KW" : "",
  "reklamni_tekst_baner" : "",
  "cena_na_vklop" : "",
  "opis" : "Plug & Charge Phone Call Mobile App",
  "opis_tip_prikljucka_vticnice" : "Mennekes Type 2 Socket@20 kW"
}, {
  "id" : 763,
  "name" : "Nasproti TIC Žalec in gostilne Kaval (Schuko L)",
  "address" : "Šlandrov trg",
  "town" : "Žalec",
  "lat" : 46.2516,
  "lng" : 15.167081,
  "deluje" : 1,
  "cena_KW" : "0.220",
  "reklamni_tekst_baner" : "",
  "cena_na_vklop" : "0.20",
  "opis" : "Phone Call Mobile App",
  "opis_tip_prikljucka_vticnice" : "Schuko 230V@3,6 kW"
}, {
  "id" : 764,
  "name" : "Nasproti TIC Žalec in gostilne Kaval (Schuko R)",
  "address" : "Šlandrov trg",
  "town" : "Žalec",
  "lat" : 46.2516,
  "lng" : 15.167081,
  "deluje" : 1,
  "cena_KW" : "0.220",
  "reklamni_tekst_baner" : "",
  "cena_na_vklop" : "0.20",
  "opis" : "Phone Call Mobile App",
  "opis_tip_prikljucka_vticnice" : "Schuko 230V@3,6 kW"
}, {
  "id" : 765,
  "name" : "Nasproti TIC Žalec in gostilne Kaval Mennekes",
  "address" : "Šlandrov trg",
  "town" : "Žalec",
  "lat" : 46.2516,
  "lng" : 15.167081,
  "deluje" : 1,
  "cena_KW" : "0.220",
  "reklamni_tekst_baner" : "",
  "cena_na_vklop" : "0.20",
  "opis" : "Phone Call Mobile App",
  "opis_tip_prikljucka_vticnice" : "Mennekes Type 2 Socket@20 kW"
}, {
  "id" : 769,
  "name" : "Jefačnikova domačija Mennekes",
  "address" : "Jemčeva cesta",
  "town" : "Trzin",
  "lat" : 46.14143,
  "lng" : 14.561333,
  "deluje" : 1,
  "cena_KW" : "",
  "reklamni_tekst_baner" : "",
  "cena_na_vklop" : "",
  "opis" : "Phone Call Mobile App",
  "opis_tip_prikljucka_vticnice" : "Mennekes Type 2 Socket@10 kW"
}, {
  "id" : 770,
  "name" : "Jefačnikova domačija Schuko",
  "address" : "Jemčeva cesta",
  "town" : "Trzin",
  "lat" : 46.14143,
  "lng" : 14.561333,
  "deluje" : 1,
  "cena_KW" : "",
  "reklamni_tekst_baner" : "",
  "cena_na_vklop" : "",
  "opis" : "Phone Call Mobile App",
  "opis_tip_prikljucka_vticnice" : "Schuko 230V@2 kW"
}, {
  "id" : 771,
  "name" : "KUD Trzin Type 2",
  "address" : "Mengeška cesta",
  "town" : "Trzin",
  "lat" : 46.134778,
  "lng" : 14.563927,
  "deluje" : 1,
  "cena_KW" : "",
  "reklamni_tekst_baner" : "",
  "cena_na_vklop" : "",
  "opis" : "Phone Call Mobile App",
  "opis_tip_prikljucka_vticnice" : "Mennekes Type 2 Socket@10 kW"
}, {
  "id" : 772,
  "name" : " KUD Trzin Schuko ",
  "address" : "Mengeška cesta",
  "town" : "Trzin",
  "lat" : 46.134778,
  "lng" : 14.563927,
  "deluje" : 1,
  "cena_KW" : "",
  "reklamni_tekst_baner" : "",
  "cena_na_vklop" : "",
  "opis" : "Phone Call Mobile App",
  "opis_tip_prikljucka_vticnice" : "Schuko 230V@2 kW"
}, {
  "id" : 774,
  "name" : "Center Ivan Hribar Trzin Mennekes",
  "address" : "Ljubljanska ",
  "town" : "Trzin",
  "lat" : 46.13305,
  "lng" : 14.561858,
  "deluje" : 1,
  "cena_KW" : "",
  "reklamni_tekst_baner" : "",
  "cena_na_vklop" : "",
  "opis" : "Phone Call Mobile App",
  "opis_tip_prikljucka_vticnice" : "Mennekes Type 2 Socket@10 kW"
}, {
  "id" : 775,
  "name" : "Center Ivan Hribar Trzin Schuko",
  "address" : "Ljubljanska ",
  "town" : "Trzin",
  "lat" : 46.13305,
  "lng" : 14.561858,
  "deluje" : 1,
  "cena_KW" : "",
  "reklamni_tekst_baner" : "",
  "cena_na_vklop" : "",
  "opis" : "Phone Call Mobile App",
  "opis_tip_prikljucka_vticnice" : "Schuko 230V@2 kW"
}, {
  "id" : 776,
  "name" : "Piramida Trzin Mennekes",
  "address" : "Blatnica",
  "town" : "Trzin",
  "lat" : 46.120398,
  "lng" : 14.549206,
  "deluje" : 1,
  "cena_KW" : "",
  "reklamni_tekst_baner" : "",
  "cena_na_vklop" : "",
  "opis" : "Phone Call Mobile App",
  "opis_tip_prikljucka_vticnice" : "Mennekes Type 2 Socket@10 kW"
}, {
  "id" : 777,
  "name" : "Piramida Trzin Schuko",
  "address" : "Blatnica",
  "town" : "Trzin",
  "lat" : 46.120398,
  "lng" : 14.549206,
  "deluje" : 1,
  "cena_KW" : "",
  "reklamni_tekst_baner" : "",
  "cena_na_vklop" : "",
  "opis" : "Phone Call Mobile App",
  "opis_tip_prikljucka_vticnice" : "Schuko 230V@2 kW"
}, {
  "id" : 778,
  "name" : "Vrtec Trzin  (Schuko L)",
  "address" : "Liparjeva ulica",
  "town" : "Trzin",
  "lat" : 46.131823,
  "lng" : 14.555283,
  "deluje" : 1,
  "cena_KW" : "",
  "reklamni_tekst_baner" : "",
  "cena_na_vklop" : "",
  "opis" : "Phone Call Mobile App",
  "opis_tip_prikljucka_vticnice" : "Schuko 230V@3,6 kW"
}, {
  "id" : 779,
  "name" : "Vrtec Trzin (Schuko R)",
  "address" : "Liparjeva ulica",
  "town" : "Trzin",
  "lat" : 46.131823,
  "lng" : 14.555283,
  "deluje" : 1,
  "cena_KW" : "",
  "reklamni_tekst_baner" : "",
  "cena_na_vklop" : "",
  "opis" : "Phone Call Mobile App",
  "opis_tip_prikljucka_vticnice" : "Schuko 230V@3,6 kW"
}, {
  "id" : 780,
  "name" : "Vrtec Trzin (Mennekes)",
  "address" : "Liparjeva ulica",
  "town" : "Trzin",
  "lat" : 46.131823,
  "lng" : 14.555283,
  "deluje" : 1,
  "cena_KW" : "",
  "reklamni_tekst_baner" : "",
  "cena_na_vklop" : "",
  "opis" : "Phone Call Mobile App",
  "opis_tip_prikljucka_vticnice" : "Mennekes Type 2 Socket@20 kW"
}, {
  "id" : 788,
  "name" : "Šempeter Schuko L",
  "address" : "Rimska cesta",
  "town" : "Šempeter",
  "lat" : 46.256093,
  "lng" : 15.121602,
  "deluje" : 1,
  "cena_KW" : "0.220",
  "reklamni_tekst_baner" : "",
  "cena_na_vklop" : "0.20",
  "opis" : "Phone Call Mobile App",
  "opis_tip_prikljucka_vticnice" : "Schuko 230V@3,6 kW"
}, {
  "id" : 789,
  "name" : "Šempeter Schuko R",
  "address" : "Rimska cesta",
  "town" : "Šempeter",
  "lat" : 46.256093,
  "lng" : 15.121602,
  "deluje" : 1,
  "cena_KW" : "0.220",
  "reklamni_tekst_baner" : "",
  "cena_na_vklop" : "0.20",
  "opis" : "Phone Call Mobile App",
  "opis_tip_prikljucka_vticnice" : "Schuko 230V@3,6 kW"
}, {
  "id" : 790,
  "name" : "Šempeter Type 2",
  "address" : "Rimska cesta",
  "town" : "Šempeter",
  "lat" : 46.256093,
  "lng" : 15.121602,
  "deluje" : 1,
  "cena_KW" : "0.220",
  "reklamni_tekst_baner" : "",
  "cena_na_vklop" : "0.20",
  "opis" : "Phone Call Mobile App",
  "opis_tip_prikljucka_vticnice" : "Mennekes Type 2 Socket@13 kW"
}, {
  "id" : 792,
  "name" : "Bloke Osnovna šola",
  "address" : "Nova vas",
  "town" : "Nova vas",
  "lat" : 45.773973,
  "lng" : 14.506611,
  "deluje" : 1,
  "cena_KW" : "",
  "reklamni_tekst_baner" : "",
  "cena_na_vklop" : "",
  "opis" : "Phone Call Mobile App",
  "opis_tip_prikljucka_vticnice" : "Mennekes Type 2 Socket@20 kW"
}, {
  "id" : 793,
  "name" : "Bloke Osnovna šola",
  "address" : "Nova vas",
  "town" : "Nova vas",
  "lat" : 45.773973,
  "lng" : 14.506611,
  "deluje" : 1,
  "cena_KW" : "",
  "reklamni_tekst_baner" : "",
  "cena_na_vklop" : "",
  "opis" : "Phone Call Mobile App",
  "opis_tip_prikljucka_vticnice" : "Schuko 230V@3,6 kW"
}, {
  "id" : 794,
  "name" : "Bloke AC Bloško jezero",
  "address" : "Volčje",
  "town" : "Volčje",
  "lat" : 45.78553,
  "lng" : 14.514668,
  "deluje" : 1,
  "cena_KW" : "",
  "reklamni_tekst_baner" : "",
  "cena_na_vklop" : "",
  "opis" : "Phone Call Mobile App",
  "opis_tip_prikljucka_vticnice" : "Mennekes Type 2 Socket@20 kW"
}, {
  "id" : 795,
  "name" : "Bloke AC Bloško jezero",
  "address" : "Volčje",
  "town" : "Volčje",
  "lat" : 45.78553,
  "lng" : 14.514668,
  "deluje" : 1,
  "cena_KW" : "",
  "reklamni_tekst_baner" : "",
  "cena_na_vklop" : "",
  "opis" : "Phone Call Mobile App",
  "opis_tip_prikljucka_vticnice" : "Schuko 230V@3,6 kW"
}, {
  "id" : 796,
  "name" : "AC Bloke Gostilna Miklavčič",
  "address" : "Velike bloke",
  "town" : "Nova vas",
  "lat" : 45.785866,
  "lng" : 14.479937,
  "deluje" : 0,
  "cena_KW" : "",
  "reklamni_tekst_baner" : "",
  "cena_na_vklop" : "",
  "opis" : "Phone Call Mobile App",
  "opis_tip_prikljucka_vticnice" : "Mennekes Type 2 Socket@20 kW"
}, {
  "id" : 797,
  "name" : "AC Bloke Gostilna Miklavčič",
  "address" : "Velike bloke",
  "town" : "Nova vas",
  "lat" : 45.785866,
  "lng" : 14.479937,
  "deluje" : 0,
  "cena_KW" : "",
  "reklamni_tekst_baner" : "",
  "cena_na_vklop" : "",
  "opis" : "Phone Call Mobile App",
  "opis_tip_prikljucka_vticnice" : "Schuko 230V@3,6 kW"
}, {
  "id" : 798,
  "name" : "Vrhnika Hotel Bistra",
  "address" : "Bistra",
  "town" : "Borovnica",
  "lat" : 45.947993,
  "lng" : 14.333205,
  "deluje" : 1,
  "cena_KW" : "",
  "reklamni_tekst_baner" : "",
  "cena_na_vklop" : "",
  "opis" : "Phone Call Mobile App",
  "opis_tip_prikljucka_vticnice" : "Mennekes Type 2 Socket@10 kW"
}, {
  "id" : 799,
  "name" : "Vrhnika Hotel Bistra",
  "address" : "Bistra",
  "town" : "Borovnica",
  "lat" : 45.947993,
  "lng" : 14.333205,
  "deluje" : 1,
  "cena_KW" : "",
  "reklamni_tekst_baner" : "",
  "cena_na_vklop" : "",
  "opis" : "Phone Call Mobile App",
  "opis_tip_prikljucka_vticnice" : "Schuko 230V@2 kW"
}, {
  "id" : 800,
  "name" : "Vrhnika Gostilna Mesec",
  "address" : "Jerinov grič",
  "town" : "Vrhnika",
  "lat" : 45.953375,
  "lng" : 14.227439,
  "deluje" : 0,
  "cena_KW" : "",
  "reklamni_tekst_baner" : "",
  "cena_na_vklop" : "",
  "opis" : "Phone Call Mobile App",
  "opis_tip_prikljucka_vticnice" : "Mennekes Type 2 Socket@20 kW"
}, {
  "id" : 801,
  "name" : "Vrhnika Gostilna Mesec",
  "address" : "Jerinov grič",
  "town" : "Vrhnika",
  "lat" : 45.953375,
  "lng" : 14.227439,
  "deluje" : 0,
  "cena_KW" : "",
  "reklamni_tekst_baner" : "",
  "cena_na_vklop" : "",
  "opis" : "Phone Call Mobile App",
  "opis_tip_prikljucka_vticnice" : "Schuko 230V@3,6 kW"
}, {
  "id" : 803,
  "name" : "Vrhnika Mantova",
  "address" : "Cankarjev trg",
  "town" : "Vrhnika",
  "lat" : 45.966218,
  "lng" : 14.297775,
  "deluje" : 1,
  "cena_KW" : "0.000",
  "reklamni_tekst_baner" : "",
  "cena_na_vklop" : "0.30",
  "opis" : "Phone Call Mobile App",
  "opis_tip_prikljucka_vticnice" : "Mennekes Type 2 Socket@15 kW"
}, {
  "id" : 804,
  "name" : "Vrhnika Mantova",
  "address" : "Cankarjev trg",
  "town" : "Vrhnika",
  "lat" : 45.966218,
  "lng" : 14.297775,
  "deluje" : 1,
  "cena_KW" : "0.000",
  "reklamni_tekst_baner" : "",
  "cena_na_vklop" : "0.30",
  "opis" : "Phone Call Mobile App",
  "opis_tip_prikljucka_vticnice" : "Schuko 230V@3,6 kW"
}, {
  "id" : 805,
  "name" : "Vrhnika Avtotrade AC",
  "address" : "Sinja gorica",
  "town" : "Vrhnika",
  "lat" : 45.981023,
  "lng" : 14.312448,
  "deluje" : 0,
  "cena_KW" : "",
  "reklamni_tekst_baner" : "",
  "cena_na_vklop" : "",
  "opis" : "Phone Call Mobile App",
  "opis_tip_prikljucka_vticnice" : "Mennekes Type 2 Socket@10 kW"
}, {
  "id" : 806,
  "name" : "Vrhnika Avtotrade AC",
  "address" : "Sinja gorica",
  "town" : "Vrhnika",
  "lat" : 45.981051,
  "lng" : 14.312462,
  "deluje" : 0,
  "cena_KW" : "",
  "reklamni_tekst_baner" : "",
  "cena_na_vklop" : "",
  "opis" : "Phone Call Mobile App",
  "opis_tip_prikljucka_vticnice" : "Schuko 230V@2 kW"
}, {
  "id" : 807,
  "name" : "Sodrazica Smucisce Izver Type2",
  "address" : "Zamostec",
  "town" : "Sodražica",
  "lat" : 45.755247,
  "lng" : 14.641671,
  "deluje" : 1,
  "cena_KW" : "",
  "reklamni_tekst_baner" : "",
  "cena_na_vklop" : "",
  "opis" : "Phone Call Mobile App",
  "opis_tip_prikljucka_vticnice" : "Mennekes Type 2 Socket@10 kW"
}, {
  "id" : 808,
  "name" : "Sodrazica Smucisce Izver Schuko",
  "address" : "Zamostec",
  "town" : "Sodražica",
  "lat" : 45.755247,
  "lng" : 14.641671,
  "deluje" : 1,
  "cena_KW" : "",
  "reklamni_tekst_baner" : "",
  "cena_na_vklop" : "",
  "opis" : "Phone Call Mobile App",
  "opis_tip_prikljucka_vticnice" : "Schuko 230V@2 kW"
}, {
  "id" : 810,
  "name" : "Sodražica Osnovna šola Type2",
  "address" : "Cesta notranjega odreda",
  "town" : "Sodražica",
  "lat" : 45.76345,
  "lng" : 14.634843,
  "deluje" : 1,
  "cena_KW" : "",
  "reklamni_tekst_baner" : "",
  "cena_na_vklop" : "",
  "opis" : "Phone Call Mobile App",
  "opis_tip_prikljucka_vticnice" : "Mennekes Type 2 Socket@10 kW"
}, {
  "id" : 811,
  "name" : "Sodražica Osnovna šola Schuko",
  "address" : "Cesta notranjega odreda",
  "town" : "Sodražica",
  "lat" : 45.763427,
  "lng" : 14.6348,
  "deluje" : 1,
  "cena_KW" : "",
  "reklamni_tekst_baner" : "",
  "cena_na_vklop" : "",
  "opis" : "Phone Call Mobile App",
  "opis_tip_prikljucka_vticnice" : "Schuko 230V@2 kW"
}, {
  "id" : 812,
  "name" : "Velike Lašče Kmetijska Zadruga Mennekes",
  "address" : "Na postajo",
  "town" : "Velike Lašče ",
  "lat" : 45.835905,
  "lng" : 14.637702,
  "deluje" : 1,
  "cena_KW" : "",
  "reklamni_tekst_baner" : "",
  "cena_na_vklop" : "",
  "opis" : "Phone Call Mobile App",
  "opis_tip_prikljucka_vticnice" : "Mennekes Type 2 Socket@10 kW"
}, {
  "id" : 813,
  "name" : "Velike Lašče Kmetijska Zadruga Schuko",
  "address" : "Na postajo",
  "town" : "Velike Lašče ",
  "lat" : 45.835905,
  "lng" : 14.637702,
  "deluje" : 1,
  "cena_KW" : "",
  "reklamni_tekst_baner" : "",
  "cena_na_vklop" : "",
  "opis" : "Phone Call Mobile App",
  "opis_tip_prikljucka_vticnice" : "Schuko 230V@2 kW"
}, {
  "id" : 814,
  "name" : "Cerkno Hotel Type 2 ",
  "address" : "Sedejev trg",
  "town" : "Cerkno",
  "lat" : 46.127944,
  "lng" : 13.988497,
  "deluje" : 1,
  "cena_KW" : "",
  "reklamni_tekst_baner" : "",
  "cena_na_vklop" : "",
  "opis" : "Phone Call Mobile App",
  "opis_tip_prikljucka_vticnice" : "Mennekes Type 2 Socket@20 kW"
}, {
  "id" : 815,
  "name" : "Cerkno Hotel Schuko",
  "address" : "Sedejev trg",
  "town" : "Cerkno",
  "lat" : 46.127944,
  "lng" : 13.988497,
  "deluje" : 1,
  "cena_KW" : "",
  "reklamni_tekst_baner" : "",
  "cena_na_vklop" : "",
  "opis" : "Phone Call Mobile App",
  "opis_tip_prikljucka_vticnice" : "Schuko 230V@3,6 kW"
}, {
  "id" : 816,
  "name" : "Cerkno smučišče Počivalo Mennekes",
  "address" : "Bevkova ulica",
  "town" : "Cerkno",
  "lat" : 46.155411,
  "lng" : 14.050715,
  "deluje" : 1,
  "cena_KW" : "",
  "reklamni_tekst_baner" : "",
  "cena_na_vklop" : "",
  "opis" : "Phone Call Mobile App",
  "opis_tip_prikljucka_vticnice" : "Mennekes Type 2 Socket@20 kW"
}, {
  "id" : 817,
  "name" : "Cerkno smučišče Počivalo Schuko",
  "address" : "Bevkova ulica",
  "town" : "Cerkno",
  "lat" : 46.155411,
  "lng" : 14.050715,
  "deluje" : 1,
  "cena_KW" : "",
  "reklamni_tekst_baner" : "",
  "cena_na_vklop" : "",
  "opis" : "Phone Call Mobile App",
  "opis_tip_prikljucka_vticnice" : "Schuko 230V@3,6 kW"
}, {
  "id" : 820,
  "name" : "Cerkno Bazen Mennekes",
  "address" : "Sedejev trg",
  "town" : "Cerkno",
  "lat" : 46.127734,
  "lng" : 13.98951,
  "deluje" : 1,
  "cena_KW" : "",
  "reklamni_tekst_baner" : "",
  "cena_na_vklop" : "",
  "opis" : "Phone Call Mobile App",
  "opis_tip_prikljucka_vticnice" : "Mennekes Type 2 Socket@20 kW"
}, {
  "id" : 821,
  "name" : "Cerkno Bazen Schuko",
  "address" : "Sedejev trg",
  "town" : "Cerkno",
  "lat" : 46.127734,
  "lng" : 13.98951,
  "deluje" : 1,
  "cena_KW" : "",
  "reklamni_tekst_baner" : "",
  "cena_na_vklop" : "",
  "opis" : "Phone Call Mobile App",
  "opis_tip_prikljucka_vticnice" : "Schuko 230V@3,6 kW"
}, {
  "id" : 822,
  "name" : "Cerknica Megadom",
  "address" : "Podskrajnik",
  "town" : "Cerknica",
  "lat" : 45.803635,
  "lng" : 14.328627,
  "deluje" : 1,
  "cena_KW" : "",
  "reklamni_tekst_baner" : "",
  "cena_na_vklop" : "",
  "opis" : "Phone Call Mobile App",
  "opis_tip_prikljucka_vticnice" : "Mennekes Type 2 Socket@15 kW"
}, {
  "id" : 823,
  "name" : "Cerknica Megadom",
  "address" : "Podskrajnik",
  "town" : "Cerknica",
  "lat" : 45.80364,
  "lng" : 14.328827,
  "deluje" : 1,
  "cena_KW" : "",
  "reklamni_tekst_baner" : "",
  "cena_na_vklop" : "",
  "opis" : "Phone Call Mobile App",
  "opis_tip_prikljucka_vticnice" : "Schuko 230V@3,6 kW"
}, {
  "id" : 824,
  "name" : "Cerknica Gostilna Herblan Type 2",
  "address" : "Gorenje jezero",
  "town" : "Grahovo",
  "lat" : 45.7284,
  "lng" : 14.412789,
  "deluje" : 1,
  "cena_KW" : "",
  "reklamni_tekst_baner" : "",
  "cena_na_vklop" : "",
  "opis" : "Phone Call Mobile App",
  "opis_tip_prikljucka_vticnice" : "Mennekes Type 2 Socket@20 kW"
}, {
  "id" : 825,
  "name" : "Cerknica Gostilna Herblan Schuko",
  "address" : "Gorenje jezero",
  "town" : "Grahovo",
  "lat" : 45.7284,
  "lng" : 14.412789,
  "deluje" : 1,
  "cena_KW" : "",
  "reklamni_tekst_baner" : "",
  "cena_na_vklop" : "",
  "opis" : "Phone Call Mobile App",
  "opis_tip_prikljucka_vticnice" : "Schuko 230V@3,6 kW"
}, {
  "id" : 836,
  "name" : "Spodnja Idrija Kmečki hram Fortuna Mennekes",
  "address" : "Idršek ",
  "town" : "Spodnja Idrija",
  "lat" : 46.027944,
  "lng" : 14.047715,
  "deluje" : 0,
  "cena_KW" : "",
  "reklamni_tekst_baner" : "",
  "cena_na_vklop" : "",
  "opis" : "Phone Call Mobile App",
  "opis_tip_prikljucka_vticnice" : "Mennekes Type 2 Socket@15 kW"
}, {
  "id" : 837,
  "name" : "Spodnja Idrija Kmečki hram Fortuna Schuko",
  "address" : "Idršek ",
  "town" : "Spodnja Idrija",
  "lat" : 46.027944,
  "lng" : 14.047715,
  "deluje" : 0,
  "cena_KW" : "",
  "reklamni_tekst_baner" : "",
  "cena_na_vklop" : "",
  "opis" : "Phone Call Mobile App",
  "opis_tip_prikljucka_vticnice" : "Schuko 230V@3,6 kW"
}, {
  "id" : 838,
  "name" : "Loška Dolina Babno Polje Mennekes",
  "address" : "Babno polje",
  "town" : "Stari trg pri Ložu",
  "lat" : 45.648916,
  "lng" : 14.552057,
  "deluje" : 1,
  "cena_KW" : "",
  "reklamni_tekst_baner" : "",
  "cena_na_vklop" : "",
  "opis" : "Phone Call Mobile App",
  "opis_tip_prikljucka_vticnice" : "Mennekes Type 2 Socket@15 kW"
}, {
  "id" : 839,
  "name" : "Loška Dolina Babno Polje Schuko",
  "address" : "Babno polje",
  "town" : "Stari trg pri Ložu",
  "lat" : 45.648916,
  "lng" : 14.552057,
  "deluje" : 1,
  "cena_KW" : "",
  "reklamni_tekst_baner" : "",
  "cena_na_vklop" : "",
  "opis" : "Phone Call Mobile App",
  "opis_tip_prikljucka_vticnice" : "Schuko 230V@3,6 kW"
}, {
  "id" : 840,
  "name" : "Cerknica Tabor park Mennekes",
  "address" : "Tabor",
  "town" : "Cerknica",
  "lat" : 45.795974,
  "lng" : 14.362427,
  "deluje" : 1,
  "cena_KW" : "",
  "reklamni_tekst_baner" : "",
  "cena_na_vklop" : "",
  "opis" : "Phone Call Mobile App",
  "opis_tip_prikljucka_vticnice" : "Mennekes Type 2 Socket@15 kW"
}, {
  "id" : 841,
  "name" : "Cerknica Tabor park Schuko",
  "address" : "Tabor",
  "town" : "Cerknica",
  "lat" : 45.795974,
  "lng" : 14.362427,
  "deluje" : 1,
  "cena_KW" : "",
  "reklamni_tekst_baner" : "",
  "cena_na_vklop" : "",
  "opis" : "Phone Call Mobile App",
  "opis_tip_prikljucka_vticnice" : "Schuko 230V@3,6 kW"
}, {
  "id" : 846,
  "name" : "Cerknica Furman",
  "address" : "Partizanska cesta",
  "town" : "Rakek",
  "lat" : 45.813511,
  "lng" : 14.315388,
  "deluje" : 1,
  "cena_KW" : "0.150",
  "reklamni_tekst_baner" : "",
  "cena_na_vklop" : "0.25",
  "opis" : "Phone Call Mobile App",
  "opis_tip_prikljucka_vticnice" : "Mennekes Type 2 Socket@7,2 kW"
}, {
  "id" : 847,
  "name" : "Cerknica Furman",
  "address" : "Partizanska cesta",
  "town" : "Rakek",
  "lat" : 45.813511,
  "lng" : 14.315388,
  "deluje" : 1,
  "cena_KW" : "0.150",
  "reklamni_tekst_baner" : "",
  "cena_na_vklop" : "0.25",
  "opis" : "Phone Call Mobile App",
  "opis_tip_prikljucka_vticnice" : "Schuko 230V@3,6 kW"
}, {
  "id" : 848,
  "name" : "Cirkulane Dolane Mennekes",
  "address" : "Dolane",
  "town" : "Cirkulane",
  "lat" : 46.35719,
  "lng" : 15.999461,
  "deluje" : 1,
  "cena_KW" : "0.250",
  "reklamni_tekst_baner" : "",
  "cena_na_vklop" : "0.20",
  "opis" : "Phone Call Mobile App",
  "opis_tip_prikljucka_vticnice" : "Mennekes Type 2 Socket@11 kW"
}, {
  "id" : 849,
  "name" : "Cirkulane Dolane Schuko L",
  "address" : "Dolane",
  "town" : "Cirkulane",
  "lat" : 46.35719,
  "lng" : 15.999461,
  "deluje" : 1,
  "cena_KW" : "0.250",
  "reklamni_tekst_baner" : "",
  "cena_na_vklop" : "0.20",
  "opis" : "Phone Call Mobile App",
  "opis_tip_prikljucka_vticnice" : "Schuko 230V@2 kW"
}, {
  "id" : 850,
  "name" : "Cirkulane Dolane Schuko D",
  "address" : "Dolane",
  "town" : "Cirkulane",
  "lat" : 46.35719,
  "lng" : 15.999461,
  "deluje" : 1,
  "cena_KW" : "0.250",
  "reklamni_tekst_baner" : "",
  "cena_na_vklop" : "0.20",
  "opis" : "Phone Call Mobile App",
  "opis_tip_prikljucka_vticnice" : "Schuko 230V@2 kW"
}, {
  "id" : 851,
  "name" : "Cirkulane stadion Mennekes",
  "address" : "Cirkulane",
  "town" : "Cirkulane",
  "lat" : 46.342291,
  "lng" : 15.993004,
  "deluje" : 1,
  "cena_KW" : "0.250",
  "reklamni_tekst_baner" : "",
  "cena_na_vklop" : "0.20",
  "opis" : "Phone Call Mobile App",
  "opis_tip_prikljucka_vticnice" : "Mennekes Type 2 Socket@11 kW"
}, {
  "id" : 852,
  "name" : "Cirkulane stadion Schuko",
  "address" : "Cirkulane",
  "town" : "Cirkulane",
  "lat" : 46.342291,
  "lng" : 15.993004,
  "deluje" : 1,
  "cena_KW" : "0.250",
  "reklamni_tekst_baner" : "",
  "cena_na_vklop" : "0.20",
  "opis" : "Phone Call Mobile App",
  "opis_tip_prikljucka_vticnice" : "Schuko 230V@2 kW"
}, {
  "id" : 857,
  "name" : "Vrhnika Cankarjev Hram Mennekes Type 2 10kW",
  "address" : "Ljubljanska cesta",
  "town" : "Vrhnika",
  "lat" : 45.967241,
  "lng" : 14.298798,
  "deluje" : 0,
  "cena_KW" : "",
  "reklamni_tekst_baner" : "",
  "cena_na_vklop" : "0.30",
  "opis" : "Phone Call Mobile App",
  "opis_tip_prikljucka_vticnice" : "Mennekes Type 2 Socket@10 kW"
}, {
  "id" : 858,
  "name" : "Vrhnika Cankarjev Hram Schuko 2kW",
  "address" : "Ljubljanska cesta",
  "town" : "Vrhnika",
  "lat" : 45.967241,
  "lng" : 14.298798,
  "deluje" : 0,
  "cena_KW" : "",
  "reklamni_tekst_baner" : "",
  "cena_na_vklop" : "0.30",
  "opis" : "Phone Call Mobile App",
  "opis_tip_prikljucka_vticnice" : "Schuko 230V@2 kW"
}, {
  "id" : 859,
  "name" : "Loška Dolina ob tenis igrišču Mennekes",
  "address" : "",
  "town" : "Stari trg pri Ložu",
  "lat" : 45.719985,
  "lng" : 14.468738,
  "deluje" : 1,
  "cena_KW" : "",
  "reklamni_tekst_baner" : "",
  "cena_na_vklop" : "",
  "opis" : "Phone Call Mobile App",
  "opis_tip_prikljucka_vticnice" : "Mennekes Type 2 Socket@"
}, {
  "id" : 860,
  "name" : "Loška Dolina ob tenis igrišču Schuko",
  "address" : "",
  "town" : "Stari trg pri Ložu",
  "lat" : 45.72,
  "lng" : 14.468716,
  "deluje" : 1,
  "cena_KW" : "",
  "reklamni_tekst_baner" : "",
  "cena_na_vklop" : "",
  "opis" : "Phone Call Mobile App",
  "opis_tip_prikljucka_vticnice" : "Schuko 230V@"
}, {
  "id" : 861,
  "name" : "Youth Hostel Ars Viva Loška Dolina Mennekes",
  "address" : "Podcerkev",
  "town" : "Stari trg pri Ložu",
  "lat" : 45.712094,
  "lng" : 14.458922,
  "deluje" : 0,
  "cena_KW" : "",
  "reklamni_tekst_baner" : "",
  "cena_na_vklop" : "",
  "opis" : "Phone Call Mobile App",
  "opis_tip_prikljucka_vticnice" : "Mennekes Type 2 Socket@10 kW"
}, {
  "id" : 862,
  "name" : "Youth Hostel Ars Viva Loška Dolina Schuko",
  "address" : "Podcerkev",
  "town" : "Stari trg pri Ložu",
  "lat" : 45.712094,
  "lng" : 14.458922,
  "deluje" : 0,
  "cena_KW" : "",
  "reklamni_tekst_baner" : "",
  "cena_na_vklop" : "",
  "opis" : "Phone Call Mobile App",
  "opis_tip_prikljucka_vticnice" : "Schuko 230V@2 kW"
}, {
  "id" : 863,
  "name" : "Hotel Rakov Škocjan, Cerknica Mennekes",
  "address" : "Rakov Škocjan",
  "town" : "Cerknica",
  "lat" : 45.788769,
  "lng" : 14.297635,
  "deluje" : 0,
  "cena_KW" : "",
  "reklamni_tekst_baner" : "",
  "cena_na_vklop" : "",
  "opis" : "Phone Call Mobile App",
  "opis_tip_prikljucka_vticnice" : "Mennekes Type 2 Socket@15 kW"
}, {
  "id" : 864,
  "name" : "Hotel Rakov Škocjan, Cerknica Schuko",
  "address" : "Rakov Škocjan",
  "town" : "Cerknica",
  "lat" : 45.788769,
  "lng" : 14.297635,
  "deluje" : 0,
  "cena_KW" : "",
  "reklamni_tekst_baner" : "",
  "cena_na_vklop" : "",
  "opis" : "Phone Call Mobile App",
  "opis_tip_prikljucka_vticnice" : "Schuko 230V@3,6 kW"
}, {
  "id" : 865,
  "name" : "Cerknica pri Avto-Slivnica Mennekes",
  "address" : "Podskrajnik",
  "town" : "Cerknica",
  "lat" : 45.795445,
  "lng" : 14.346368,
  "deluje" : 1,
  "cena_KW" : "",
  "reklamni_tekst_baner" : "",
  "cena_na_vklop" : "",
  "opis" : "Phone Call Mobile App",
  "opis_tip_prikljucka_vticnice" : "Mennekes Type 2 Socket@20 kW"
}, {
  "id" : 866,
  "name" : "Cerknica pri Avto-Slivnica Schuko ",
  "address" : "Podskrajnik",
  "town" : "Cerknica",
  "lat" : 45.795445,
  "lng" : 14.346368,
  "deluje" : 1,
  "cena_KW" : "",
  "reklamni_tekst_baner" : "",
  "cena_na_vklop" : "",
  "opis" : "Phone Call Mobile App",
  "opis_tip_prikljucka_vticnice" : "Schuko 230V@3,6 kW"
}, {
  "id" : 869,
  "name" : "Restavracija Flamingo Vrhnika Mennekes",
  "address" : "Vrtnarija ",
  "town" : "Vrhnika",
  "lat" : 45.973524,
  "lng" : 14.303002,
  "deluje" : 1,
  "cena_KW" : "",
  "reklamni_tekst_baner" : "",
  "cena_na_vklop" : "0.30",
  "opis" : "Phone Call Mobile App",
  "opis_tip_prikljucka_vticnice" : "Mennekes Type 2 Socket@10 kW"
}, {
  "id" : 870,
  "name" : "Restavracija Flamingo Vrhnika Schuko",
  "address" : "Vrtnarija ",
  "town" : "Vrhnika",
  "lat" : 45.973524,
  "lng" : 14.303002,
  "deluje" : 1,
  "cena_KW" : "",
  "reklamni_tekst_baner" : "",
  "cena_na_vklop" : "0.30",
  "opis" : "Phone Call Mobile App",
  "opis_tip_prikljucka_vticnice" : "Schuko 230V@2 kW"
}, {
  "id" : 875,
  "name" : "Vransko CHAdeMO",
  "address" : "Vransko",
  "town" : "Vransko",
  "lat" : 46.244217,
  "lng" : 14.954107,
  "deluje" : 1,
  "cena_KW" : "0.190",
  "reklamni_tekst_baner" : "",
  "cena_na_vklop" : "",
  "opis" : "Phone Call Mobile App",
  "opis_tip_prikljucka_vticnice" : "CHAdeMO DCFC@30 kW"
}, {
  "id" : 876,
  "name" : "Vransko CCS",
  "address" : "Vransko",
  "town" : "Vransko",
  "lat" : 46.244217,
  "lng" : 14.954107,
  "deluje" : 1,
  "cena_KW" : "0.190",
  "reklamni_tekst_baner" : "",
  "cena_na_vklop" : "",
  "opis" : "Phone Call Mobile App",
  "opis_tip_prikljucka_vticnice" : "CCS Combo@30 kW"
}, {
  "id" : 877,
  "name" : "Vransko Schuko L",
  "address" : "Vransko",
  "town" : "Vransko",
  "lat" : 46.244217,
  "lng" : 14.954107,
  "deluje" : 1,
  "cena_KW" : "",
  "reklamni_tekst_baner" : "",
  "cena_na_vklop" : "",
  "opis" : "Phone Call Mobile App",
  "opis_tip_prikljucka_vticnice" : "Schuko 230V@3,6 kW"
}, {
  "id" : 878,
  "name" : "Vransko Schuko R",
  "address" : "Vransko",
  "town" : "Vransko",
  "lat" : 46.244217,
  "lng" : 14.954107,
  "deluje" : 1,
  "cena_KW" : "",
  "reklamni_tekst_baner" : "",
  "cena_na_vklop" : "",
  "opis" : "Phone Call Mobile App",
  "opis_tip_prikljucka_vticnice" : "Schuko 230V@3,6 kW"
}, {
  "id" : 879,
  "name" : "Dolenjske Toplice Zdraviliški trg CHAdeMO",
  "address" : "Parkirišče",
  "town" : "Dolenjske Toplice",
  "lat" : 45.759617,
  "lng" : 15.056229,
  "deluje" : 1,
  "cena_KW" : "",
  "reklamni_tekst_baner" : "",
  "cena_na_vklop" : "",
  "opis" : "Phone Call Mobile App",
  "opis_tip_prikljucka_vticnice" : "CHAdeMO DCFC@15 kW"
}, {
  "id" : 880,
  "name" : "Dolenjske Toplice Zdraviliški trg CCS",
  "address" : "Parkirišče",
  "town" : "Dolenjske Toplice",
  "lat" : 45.759617,
  "lng" : 15.056229,
  "deluje" : 1,
  "cena_KW" : "",
  "reklamni_tekst_baner" : "",
  "cena_na_vklop" : "",
  "opis" : "Phone Call Mobile App",
  "opis_tip_prikljucka_vticnice" : "CCS Combo@15 kW"
}, {
  "id" : 881,
  "name" : "Dolenjske Toplice Zdraviliški trg Schuko L",
  "address" : "",
  "town" : "Dolenjske Toplice",
  "lat" : 45.759617,
  "lng" : 15.056229,
  "deluje" : 1,
  "cena_KW" : "",
  "reklamni_tekst_baner" : "",
  "cena_na_vklop" : "",
  "opis" : "Phone Call Mobile App",
  "opis_tip_prikljucka_vticnice" : "Schuko 230V@3,6 kW"
}, {
  "id" : 882,
  "name" : "Dolenjske Toplice Zdraviliški trg Schuko R",
  "address" : "",
  "town" : "Dolenjske Toplice",
  "lat" : 45.759617,
  "lng" : 15.056229,
  "deluje" : 1,
  "cena_KW" : "",
  "reklamni_tekst_baner" : "",
  "cena_na_vklop" : "",
  "opis" : "Phone Call Mobile App",
  "opis_tip_prikljucka_vticnice" : "Schuko 230V@3,6 kW"
}, {
  "id" : 889,
  "name" : "Vransko KIV Type 2",
  "address" : "Vransko",
  "town" : "Vransko",
  "lat" : 46.244217,
  "lng" : 14.954107,
  "deluje" : 1,
  "cena_KW" : "",
  "reklamni_tekst_baner" : "",
  "cena_na_vklop" : "",
  "opis" : "Plug & Charge",
  "opis_tip_prikljucka_vticnice" : "Mennekes Type 2 Socket@15 kW"
}, {
  "id" : 912,
  "name" : "Tolmin Kamp Šorli type2",
  "address" : "Koritnica",
  "town" : "Grahovo ob Bači",
  "lat" : 46.166576,
  "lng" : 13.871269,
  "deluje" : 0,
  "cena_KW" : "",
  "reklamni_tekst_baner" : "",
  "cena_na_vklop" : "",
  "opis" : "Phone Call Mobile App",
  "opis_tip_prikljucka_vticnice" : "Mennekes Type 2 Socket@10 kW"
}, {
  "id" : 913,
  "name" : "Tolmin Kamp Šorli šuko",
  "address" : "Koritnica",
  "town" : "Grahovo ob Bači",
  "lat" : 46.166576,
  "lng" : 13.871269,
  "deluje" : 0,
  "cena_KW" : "",
  "reklamni_tekst_baner" : "",
  "cena_na_vklop" : "",
  "opis" : "Phone Call Mobile App",
  "opis_tip_prikljucka_vticnice" : "Schuko 230V@3,6 kW"
}, {
  "id" : 956,
  "name" : "DC Kranj ISKRATEL (CHAdeMO)",
  "address" : "Ljubljanska cesta",
  "town" : "Kranj",
  "lat" : 46.224902,
  "lng" : 14.355919,
  "deluje" : 0,
  "cena_KW" : "0.250",
  "reklamni_tekst_baner" : "",
  "cena_na_vklop" : "0.25",
  "opis" : "Phone Call Mobile App",
  "opis_tip_prikljucka_vticnice" : "CHAdeMO DCFC@75 kW"
}, {
  "id" : 957,
  "name" : "DC Kranj ISKRATEL (CCS)",
  "address" : "Ljubljanska cesta",
  "town" : "Kranj",
  "lat" : 46.224976,
  "lng" : 14.355865,
  "deluje" : 0,
  "cena_KW" : "0.250",
  "reklamni_tekst_baner" : "",
  "cena_na_vklop" : "0.25",
  "opis" : "Phone Call Mobile App",
  "opis_tip_prikljucka_vticnice" : "CCS Combo@75 kW"
}, {
  "id" : 958,
  "name" : "Kranj AC Iskratel Mennekes",
  "address" : "Ljubljanska cesta",
  "town" : "Kranj",
  "lat" : 46.224902,
  "lng" : 14.355919,
  "deluje" : 1,
  "cena_KW" : "0.120",
  "reklamni_tekst_baner" : "",
  "cena_na_vklop" : "0.10",
  "opis" : "Phone Call Mobile App",
  "opis_tip_prikljucka_vticnice" : "Mennekes Type 2 Socket@22 kW"
}, {
  "id" : 959,
  "name" : "Kranj AC Iskratel Schuko L",
  "address" : "Ljubljanska cesta",
  "town" : "Kranj",
  "lat" : 46.224902,
  "lng" : 14.355919,
  "deluje" : 1,
  "cena_KW" : "0.120",
  "reklamni_tekst_baner" : "",
  "cena_na_vklop" : "0.10",
  "opis" : "Phone Call Mobile App",
  "opis_tip_prikljucka_vticnice" : "Schuko 230V@3,6 kW"
}, {
  "id" : 960,
  "name" : "Kranj AC Iskratel Schuko R",
  "address" : "Ljubljanska cesta",
  "town" : "Kranj",
  "lat" : 46.224902,
  "lng" : 14.355919,
  "deluje" : 1,
  "cena_KW" : "0.120",
  "reklamni_tekst_baner" : "",
  "cena_na_vklop" : "0.10",
  "opis" : "Phone Call Mobile App",
  "opis_tip_prikljucka_vticnice" : "Schuko 230V@3,6 kW"
}, {
  "id" : 965,
  "name" : "Ogulin 1 Schuko L",
  "address" : "Josipa Jurja Strossmayera",
  "town" : "Ogulin",
  "lat" : 45.26676,
  "lng" : 15.22787,
  "deluje" : 1,
  "cena_KW" : "0.250",
  "reklamni_tekst_baner" : "",
  "cena_na_vklop" : "0.20",
  "opis" : "Phone Call Mobile App",
  "opis_tip_prikljucka_vticnice" : "Schuko 230V@3,6 kW"
}, {
  "id" : 966,
  "name" : "Ogulin 1 Schuko R",
  "address" : "Josipa Jurja Strossmayera",
  "town" : "Ogulin",
  "lat" : 45.26676,
  "lng" : 15.22787,
  "deluje" : 1,
  "cena_KW" : "0.250",
  "reklamni_tekst_baner" : "",
  "cena_na_vklop" : "0.20",
  "opis" : "Phone Call Mobile App",
  "opis_tip_prikljucka_vticnice" : "Schuko 230V@3,6 kW"
}, {
  "id" : 967,
  "name" : "Ogulin 1 Mennekes",
  "address" : "Josipa Jurja Strossmayera",
  "town" : "Ogulin",
  "lat" : 45.26676,
  "lng" : 15.22787,
  "deluje" : 1,
  "cena_KW" : "0.280",
  "reklamni_tekst_baner" : "",
  "cena_na_vklop" : "0.20",
  "opis" : "Phone Call Mobile App",
  "opis_tip_prikljucka_vticnice" : "Mennekes Type 2 Socket@22 kW"
}, {
  "id" : 968,
  "name" : "Krsko Tri lucke AC Mennekes",
  "address" : "Sremič",
  "town" : "Krško",
  "lat" : 45.970361,
  "lng" : 15.491001,
  "deluje" : 1,
  "cena_KW" : "",
  "reklamni_tekst_baner" : "",
  "cena_na_vklop" : "",
  "opis" : "Phone Call Mobile App",
  "opis_tip_prikljucka_vticnice" : "Mennekes Type 2 Socket@15 kW"
}, {
  "id" : 969,
  "name" : "Krsko Tri lucke AC Schuko",
  "address" : "Sremič",
  "town" : "Krško",
  "lat" : 45.970361,
  "lng" : 15.491001,
  "deluje" : 1,
  "cena_KW" : "",
  "reklamni_tekst_baner" : "",
  "cena_na_vklop" : "",
  "opis" : "Phone Call Mobile App",
  "opis_tip_prikljucka_vticnice" : "Schuko 230V@3,6 kW"
}, {
  "id" : 979,
  "name" : "Krško Gostilna in Hotel Kunst Mennekes",
  "address" : "Ulica mladinskih del. brigad",
  "town" : "Leskovec pri Krškem",
  "lat" : 45.938721,
  "lng" : 15.483981,
  "deluje" : 1,
  "cena_KW" : "",
  "reklamni_tekst_baner" : "",
  "cena_na_vklop" : "",
  "opis" : "Phone Call Mobile App",
  "opis_tip_prikljucka_vticnice" : "Mennekes Type 2 Socket@15 kW"
}, {
  "id" : 980,
  "name" : "Krško Gostilna in Hotel Kunst Schuko",
  "address" : "Ulica mladinskih del. brigad",
  "town" : "Leskovec pri Krškem",
  "lat" : 45.938721,
  "lng" : 15.483981,
  "deluje" : 1,
  "cena_KW" : "",
  "reklamni_tekst_baner" : "",
  "cena_na_vklop" : "",
  "opis" : "Phone Call Mobile App",
  "opis_tip_prikljucka_vticnice" : "Schuko 230V@2 kW"
}, {
  "id" : 981,
  "name" : "Turistična kmetija Želinc Mennekes",
  "address" : "Straža",
  "town" : "Cerkno",
  "lat" : 46.102901,
  "lng" : 13.946661,
  "deluje" : 1,
  "cena_KW" : "",
  "reklamni_tekst_baner" : "",
  "cena_na_vklop" : "",
  "opis" : "Phone Call Mobile App",
  "opis_tip_prikljucka_vticnice" : "Mennekes Type 2 Socket@15 kW"
}, {
  "id" : 982,
  "name" : "Turistična kmetija Želinc Schuko",
  "address" : "Straža",
  "town" : "Cerkno",
  "lat" : 46.102901,
  "lng" : 13.946661,
  "deluje" : 1,
  "cena_KW" : "",
  "reklamni_tekst_baner" : "",
  "cena_na_vklop" : "",
  "opis" : "Phone Call Mobile App",
  "opis_tip_prikljucka_vticnice" : "Schuko 230V@2 kW"
}, {
  "id" : 985,
  "name" : "Turistična kmetija pri Flandru Mennekes",
  "address" : "Zakojca",
  "town" : "Cerkno",
  "lat" : 46.164922,
  "lng" : 13.926736,
  "deluje" : 0,
  "cena_KW" : "",
  "reklamni_tekst_baner" : "",
  "cena_na_vklop" : "",
  "opis" : "Phone Call Mobile App",
  "opis_tip_prikljucka_vticnice" : "Mennekes Type 2 Socket@15 kW"
}, {
  "id" : 986,
  "name" : "Turistična kmetija pri Flandru Schuko",
  "address" : "Zakojca",
  "town" : "Cerkno",
  "lat" : 46.164922,
  "lng" : 13.926736,
  "deluje" : 0,
  "cena_KW" : "",
  "reklamni_tekst_baner" : "",
  "cena_na_vklop" : "",
  "opis" : "Phone Call Mobile App",
  "opis_tip_prikljucka_vticnice" : "Schuko 230V@2 kW"
}, {
  "id" : 987,
  "name" : "Restavracija Silvester Mennekes",
  "address" : "Raka",
  "town" : "Raka",
  "lat" : 45.929892,
  "lng" : 15.379037,
  "deluje" : 0,
  "cena_KW" : "",
  "reklamni_tekst_baner" : "",
  "cena_na_vklop" : "",
  "opis" : "Phone Call Mobile App",
  "opis_tip_prikljucka_vticnice" : "Mennekes Type 2 Socket@15 kW"
}, {
  "id" : 988,
  "name" : "Restavracija Silvester Schuko",
  "address" : "Raka",
  "town" : "Raka",
  "lat" : 45.929892,
  "lng" : 15.379037,
  "deluje" : 0,
  "cena_KW" : "",
  "reklamni_tekst_baner" : "",
  "cena_na_vklop" : "",
  "opis" : "Phone Call Mobile App",
  "opis_tip_prikljucka_vticnice" : "Schuko 230V@2 kW"
}, {
  "id" : 989,
  "name" : "Old school Villa Mennekes",
  "address" : "Nova vas",
  "town" : "Bloke",
  "lat" : 45.769125,
  "lng" : 14.508318,
  "deluje" : 1,
  "cena_KW" : "",
  "reklamni_tekst_baner" : "",
  "cena_na_vklop" : "",
  "opis" : "Phone Call Mobile App",
  "opis_tip_prikljucka_vticnice" : "Mennekes Type 2 Socket@15 kW"
}, {
  "id" : 990,
  "name" : "Old school Villa Schuko",
  "address" : "Nova vas",
  "town" : "Bloke",
  "lat" : 45.769125,
  "lng" : 14.508318,
  "deluje" : 1,
  "cena_KW" : "",
  "reklamni_tekst_baner" : "",
  "cena_na_vklop" : "",
  "opis" : "Phone Call Mobile App",
  "opis_tip_prikljucka_vticnice" : "Schuko 230V@2 kW"
}, {
  "id" : 991,
  "name" : "Bloke, JUB",
  "address" : "Nova vas",
  "town" : "Nova Vas",
  "lat" : 45.772585,
  "lng" : 14.509226,
  "deluje" : 1,
  "cena_KW" : "0.100",
  "reklamni_tekst_baner" : "",
  "cena_na_vklop" : "0.10",
  "opis" : "Phone Call Mobile App",
  "opis_tip_prikljucka_vticnice" : "Mennekes Type 2 Socket@15 kW"
}, {
  "id" : 992,
  "name" : "Bloke, JUB",
  "address" : "Nova vas",
  "town" : "Nova Vas",
  "lat" : 45.772585,
  "lng" : 14.509226,
  "deluje" : 1,
  "cena_KW" : "0.100",
  "reklamni_tekst_baner" : "",
  "cena_na_vklop" : "0.10",
  "opis" : "Phone Call Mobile App",
  "opis_tip_prikljucka_vticnice" : "Schuko 230V@2 kW"
}, {
  "id" : 993,
  "name" : "Okrepčevalnica Tolminska korita Mennekes",
  "address" : "Zatolmin",
  "town" : "Tolmin",
  "lat" : 46.197419,
  "lng" : 13.739386,
  "deluje" : 1,
  "cena_KW" : "0.250",
  "reklamni_tekst_baner" : "",
  "cena_na_vklop" : "0.20",
  "opis" : "Phone Call Mobile App",
  "opis_tip_prikljucka_vticnice" : "Mennekes Type 2 Socket@15 kW"
}, {
  "id" : 994,
  "name" : "Okrepčevalnica Tolminska korita Schuko",
  "address" : "Zatolmin",
  "town" : "Tolmin",
  "lat" : 46.197419,
  "lng" : 13.739386,
  "deluje" : 1,
  "cena_KW" : "0.250",
  "reklamni_tekst_baner" : "",
  "cena_na_vklop" : "0.20",
  "opis" : "Phone Call Mobile App",
  "opis_tip_prikljucka_vticnice" : "Schuko 230V@2 kW"
}, {
  "id" : 995,
  "name" : "Tolmin “Pri Štefanu” Mennekes",
  "address" : "Postaja",
  "town" : "Most na Soči",
  "lat" : 46.147866,
  "lng" : 13.758337,
  "deluje" : 1,
  "cena_KW" : "",
  "reklamni_tekst_baner" : "",
  "cena_na_vklop" : "",
  "opis" : "Phone Call Mobile App",
  "opis_tip_prikljucka_vticnice" : "Mennekes Type 2 Socket@15 kW"
}, {
  "id" : 996,
  "name" : "Tolmin “Pri Štefanu” Schuko",
  "address" : "Postaja",
  "town" : "Most na Soči",
  "lat" : 46.147866,
  "lng" : 13.758337,
  "deluje" : 1,
  "cena_KW" : "",
  "reklamni_tekst_baner" : "",
  "cena_na_vklop" : "",
  "opis" : "Phone Call Mobile App",
  "opis_tip_prikljucka_vticnice" : "Schuko 230V@2 kW"
}, {
  "id" : 997,
  "name" : "Sodražica pri zaprti tržnici Type2",
  "address" : "Trg 25. maja",
  "town" : "Sodražica",
  "lat" : 45.76184,
  "lng" : 14.635903,
  "deluje" : 1,
  "cena_KW" : "",
  "reklamni_tekst_baner" : "",
  "cena_na_vklop" : "",
  "opis" : "Phone Call Mobile App",
  "opis_tip_prikljucka_vticnice" : "Mennekes Type 2 Socket@15 kW"
}, {
  "id" : 998,
  "name" : "Sodražica pri zaprti tržnici Schuko",
  "address" : "Trg 25. maja",
  "town" : "Sodražica",
  "lat" : 45.76184,
  "lng" : 14.635887,
  "deluje" : 1,
  "cena_KW" : "",
  "reklamni_tekst_baner" : "",
  "cena_na_vklop" : "",
  "opis" : "Phone Call Mobile App",
  "opis_tip_prikljucka_vticnice" : "Schuko 230V@2 kW"
}, {
  "id" : 999,
  "name" : "Hotel Leonardo Mennekes",
  "address" : "Leonova ulica",
  "town" : "Slovenska Bistrica",
  "lat" : 46.382783,
  "lng" : 15.564333,
  "deluje" : 1,
  "cena_KW" : "0.180",
  "reklamni_tekst_baner" : "",
  "cena_na_vklop" : "0.20",
  "opis" : "Phone Call Mobile App",
  "opis_tip_prikljucka_vticnice" : "Mennekes Type 2 Socket@15 kW"
}, {
  "id" : 1000,
  "name" : "Hotel Leonardo Schuko",
  "address" : "Leonova ulica",
  "town" : "Slovenska Bistrica",
  "lat" : 46.382783,
  "lng" : 15.564333,
  "deluje" : 1,
  "cena_KW" : "0.180",
  "reklamni_tekst_baner" : "",
  "cena_na_vklop" : "0.20",
  "opis" : "Phone Call Mobile App",
  "opis_tip_prikljucka_vticnice" : "Schuko 230V@2 kW"
}, {
  "id" : 1001,
  "name" : "Gostišče Golob Mennekes",
  "address" : "Bukovec",
  "town" : "Zgornja Polskava",
  "lat" : 46.430482,
  "lng" : 15.626394,
  "deluje" : 0,
  "cena_KW" : "0.250",
  "reklamni_tekst_baner" : "",
  "cena_na_vklop" : "0.20",
  "opis" : "Phone Call Mobile App",
  "opis_tip_prikljucka_vticnice" : "Mennekes Type 2 Socket@15 kW"
}, {
  "id" : 1002,
  "name" : "Gostišče Golob Schuko",
  "address" : "Bukovec",
  "town" : "Zgornja Polskava",
  "lat" : 46.430482,
  "lng" : 15.626394,
  "deluje" : 0,
  "cena_KW" : "0.250",
  "reklamni_tekst_baner" : "",
  "cena_na_vklop" : "0.20",
  "opis" : "Phone Call Mobile App",
  "opis_tip_prikljucka_vticnice" : "Schuko 230V@2 kW"
}, {
  "id" : 1003,
  "name" : "Gams Club Mennekes",
  "address" : "Ljubljanska cesta",
  "town" : "Slovenska Bistrica",
  "lat" : 46.385006,
  "lng" : 15.56567,
  "deluje" : 0,
  "cena_KW" : "",
  "reklamni_tekst_baner" : "",
  "cena_na_vklop" : "",
  "opis" : "Phone Call Mobile App",
  "opis_tip_prikljucka_vticnice" : "Mennekes Type 2 Socket@15 kW"
}, {
  "id" : 1004,
  "name" : "Gams Club ScByhuko",
  "address" : "Ljubljanska cesta",
  "town" : "Slovenska Bistrica",
  "lat" : 46.385006,
  "lng" : 15.56567,
  "deluje" : 0,
  "cena_KW" : "",
  "reklamni_tekst_baner" : "",
  "cena_na_vklop" : "",
  "opis" : "Phone Call Mobile App",
  "opis_tip_prikljucka_vticnice" : "Schuko 230V@2 kW"
}, {
  "id" : 1005,
  "name" : "FPL avtocenter Pušnik Mennekes",
  "address" : "Žolgarjeva ulica",
  "town" : "Slovenska Bistrica",
  "lat" : 46.387158,
  "lng" : 15.570476,
  "deluje" : 1,
  "cena_KW" : "0.200",
  "reklamni_tekst_baner" : "",
  "cena_na_vklop" : "0.20",
  "opis" : "Phone Call Mobile App",
  "opis_tip_prikljucka_vticnice" : "Mennekes Type 2 Socket@15 kW"
}, {
  "id" : 1006,
  "name" : "FPL avtocenter Pušnik Schuko",
  "address" : "Žolgarjeva ulica",
  "town" : "Slovenska Bistrica",
  "lat" : 46.387158,
  "lng" : 15.570476,
  "deluje" : 1,
  "cena_KW" : "0.200",
  "reklamni_tekst_baner" : "",
  "cena_na_vklop" : "0.20",
  "opis" : "Phone Call Mobile App",
  "opis_tip_prikljucka_vticnice" : "Schuko 230V@2 kW"
}, {
  "id" : 1007,
  "name" : "Terme Banovci Mennekes",
  "address" : "Banovci",
  "town" : "Veržej",
  "lat" : 46.57273,
  "lng" : 16.170726,
  "deluje" : 1,
  "cena_KW" : "0.410",
  "reklamni_tekst_baner" : "",
  "cena_na_vklop" : "0.20",
  "opis" : "Phone Call Mobile App",
  "opis_tip_prikljucka_vticnice" : "Mennekes Type 2 Socket@15 kW"
}, {
  "id" : 1008,
  "name" : "Terme Banovci Schuko L",
  "address" : "Banovci",
  "town" : "Veržej",
  "lat" : 46.57273,
  "lng" : 16.170726,
  "deluje" : 1,
  "cena_KW" : "0.410",
  "reklamni_tekst_baner" : "",
  "cena_na_vklop" : "0.20",
  "opis" : "Phone Call Mobile App",
  "opis_tip_prikljucka_vticnice" : "Schuko 230V@2 kW"
}, {
  "id" : 1009,
  "name" : "Terme Banovci Schuko R",
  "address" : "Banovci",
  "town" : "Veržej",
  "lat" : 46.57273,
  "lng" : 16.170726,
  "deluje" : 1,
  "cena_KW" : "0.410",
  "reklamni_tekst_baner" : "",
  "cena_na_vklop" : "0.20",
  "opis" : "Phone Call Mobile App",
  "opis_tip_prikljucka_vticnice" : "Schuko 230V@2 kW"
}, {
  "id" : 1010,
  "name" : "Avtocenter Špan CHAdeMO",
  "address" : "Tržaška ",
  "town" : "Brezovica pri Ljubljani",
  "lat" : 46.022254,
  "lng" : 14.411406,
  "deluje" : 1,
  "cena_KW" : "0.250",
  "reklamni_tekst_baner" : "",
  "cena_na_vklop" : "0.25",
  "opis" : "Phone Call Mobile App",
  "opis_tip_prikljucka_vticnice" : "CHAdeMO DCFC@30 kW"
}, {
  "id" : 1011,
  "name" : "Avtocenter Špan CCS",
  "address" : "Tržaška ",
  "town" : "Brezovica pri Ljubljani",
  "lat" : 46.022254,
  "lng" : 14.411406,
  "deluje" : 1,
  "cena_KW" : "0.250",
  "reklamni_tekst_baner" : "",
  "cena_na_vklop" : "0.25",
  "opis" : "Phone Call Mobile App",
  "opis_tip_prikljucka_vticnice" : "CCS Combo@30 kW"
}, {
  "id" : 1013,
  "name" : "Avtocenter Špan Schuko L",
  "address" : "Tržaška ",
  "town" : "Brezovica pri Ljubljani",
  "lat" : 46.022254,
  "lng" : 14.411406,
  "deluje" : 1,
  "cena_KW" : "0.200",
  "reklamni_tekst_baner" : "",
  "cena_na_vklop" : "0.25",
  "opis" : "Phone Call Mobile App",
  "opis_tip_prikljucka_vticnice" : "Schuko 230V@2 kW"
}, {
  "id" : 1014,
  "name" : "Avtocenter Špan Schuko R",
  "address" : "Tržaška ",
  "town" : "Brezovica pri Ljubljani",
  "lat" : 46.022254,
  "lng" : 14.411406,
  "deluje" : 1,
  "cena_KW" : "0.200",
  "reklamni_tekst_baner" : "",
  "cena_na_vklop" : "0.25",
  "opis" : "Phone Call Mobile App",
  "opis_tip_prikljucka_vticnice" : "Schuko 230V@2 kW"
}, {
  "id" : 1015,
  "name" : "Avtocenter Špan 1. AC Mennekes",
  "address" : "Tržaška cesta",
  "town" : "Brezovica pri Ljubljani",
  "lat" : 46.022131,
  "lng" : 14.411545,
  "deluje" : 1,
  "cena_KW" : "0.200",
  "reklamni_tekst_baner" : "",
  "cena_na_vklop" : "0.25",
  "opis" : "Phone Call Mobile App",
  "opis_tip_prikljucka_vticnice" : "Mennekes Type 2 Socket@15 kW"
}, {
  "id" : 1016,
  "name" : "Avtocenter Špan Schuko",
  "address" : "Tržaška cesta",
  "town" : "Brezovica pri Ljubljani",
  "lat" : 46.02215,
  "lng" : 14.411514,
  "deluje" : 1,
  "cena_KW" : "0.200",
  "reklamni_tekst_baner" : "",
  "cena_na_vklop" : "0.25",
  "opis" : "Phone Call Mobile App",
  "opis_tip_prikljucka_vticnice" : "Schuko 230V@2 kW"
}, {
  "id" : 1018,
  "name" : "Avtocenter Špan lokal Mennekes",
  "address" : "Tržaška cesta",
  "town" : "Brezovica pri Ljubljani",
  "lat" : 46.023572,
  "lng" : 14.412,
  "deluje" : 1,
  "cena_KW" : "0.200",
  "reklamni_tekst_baner" : "",
  "cena_na_vklop" : "0.30",
  "opis" : "Phone Call Mobile App",
  "opis_tip_prikljucka_vticnice" : "Mennekes Type 2 Socket@15 kW"
}, {
  "id" : 1019,
  "name" : "Avtocenter Špan lokal Schuko",
  "address" : "Tržaška cesta",
  "town" : "Brezovica pri Ljubljani",
  "lat" : 46.023572,
  "lng" : 14.412,
  "deluje" : 1,
  "cena_KW" : "0.200",
  "reklamni_tekst_baner" : "",
  "cena_na_vklop" : "0.30",
  "opis" : "Phone Call Mobile App",
  "opis_tip_prikljucka_vticnice" : "Schuko 230V@2 kW"
}, {
  "id" : 1020,
  "name" : "Avtocenter Špan Type 2",
  "address" : "Tržaška cesta",
  "town" : "Brezovica pri Ljubljani",
  "lat" : 46.022132,
  "lng" : 14.411564,
  "deluje" : 1,
  "cena_KW" : "0.200",
  "reklamni_tekst_baner" : "",
  "cena_na_vklop" : "",
  "opis" : "Phone Call Mobile App",
  "opis_tip_prikljucka_vticnice" : "Mennekes Type 2 Socket@15 kW"
}, {
  "id" : 1021,
  "name" : "Avtocenter Špan Schuko",
  "address" : "Tržaška cesta",
  "town" : "Brezovica pri Ljubljani",
  "lat" : 46.022106,
  "lng" : 14.411503,
  "deluje" : 1,
  "cena_KW" : "0.200",
  "reklamni_tekst_baner" : "",
  "cena_na_vklop" : "",
  "opis" : "Phone Call Mobile App",
  "opis_tip_prikljucka_vticnice" : "Schuko 230V@2 kW"
}, {
  "id" : 1022,
  "name" : "Avtocenter Špan Mennekes",
  "address" : "Tržaška cesta",
  "town" : "Brezovica pri Ljubljani",
  "lat" : 46.02204,
  "lng" : 14.411568,
  "deluje" : 1,
  "cena_KW" : "0.200",
  "reklamni_tekst_baner" : "",
  "cena_na_vklop" : "0.25",
  "opis" : "Phone Call Mobile App",
  "opis_tip_prikljucka_vticnice" : "Mennekes Type 2 Socket@15 kW"
}, {
  "id" : 1023,
  "name" : "Avtocenter Špan Schuko",
  "address" : "Tržaška cesta",
  "town" : "Brezovica pri Ljubljani",
  "lat" : 46.022126,
  "lng" : 14.411554,
  "deluje" : 1,
  "cena_KW" : "0.200",
  "reklamni_tekst_baner" : "",
  "cena_na_vklop" : "0.25",
  "opis" : "Phone Call Mobile App",
  "opis_tip_prikljucka_vticnice" : "Schuko 230V@2 kW"
}, {
  "id" : 1024,
  "name" : "Avtocenter Špan Mennekes",
  "address" : "Tržaška cesta",
  "town" : "Brezovica pri Ljubljani",
  "lat" : 46.022102,
  "lng" : 14.411521,
  "deluje" : 0,
  "cena_KW" : "0.200",
  "reklamni_tekst_baner" : "",
  "cena_na_vklop" : "0.25",
  "opis" : "Phone Call Mobile App",
  "opis_tip_prikljucka_vticnice" : "Mennekes Type 2 Socket@15 kW"
}, {
  "id" : 1025,
  "name" : "Avtocenter Špan Schuko",
  "address" : "Tržaška cesta",
  "town" : "Brezovica pri Ljubljani",
  "lat" : 46.022087,
  "lng" : 14.411532,
  "deluje" : 0,
  "cena_KW" : "0.200",
  "reklamni_tekst_baner" : "",
  "cena_na_vklop" : "0.25",
  "opis" : "Phone Call Mobile App",
  "opis_tip_prikljucka_vticnice" : "Schuko 230V@2 kW"
}, {
  "id" : 1026,
  "name" : "Gasilski Dom Mokronog Trebelno Mennekes",
  "address" : "Florijanska cesta",
  "town" : "Mokronog",
  "lat" : 45.946194,
  "lng" : 15.145219,
  "deluje" : 1,
  "cena_KW" : "",
  "reklamni_tekst_baner" : "",
  "cena_na_vklop" : "",
  "opis" : "Phone Call Mobile App",
  "opis_tip_prikljucka_vticnice" : "Mennekes Type 2 Socket@15 kW"
}, {
  "id" : 1027,
  "name" : "Gasilski Dom Mokronog Trebelno Schuko",
  "address" : "Florijanska cesta",
  "town" : "Mokronog",
  "lat" : 45.946194,
  "lng" : 15.145219,
  "deluje" : 1,
  "cena_KW" : "",
  "reklamni_tekst_baner" : "",
  "cena_na_vklop" : "",
  "opis" : "Phone Call Mobile App",
  "opis_tip_prikljucka_vticnice" : "Schuko 230V@2 kW"
}, {
  "id" : 1028,
  "name" : "Mokronog Trebelno pri pokopališču Mennekes",
  "address" : "Trebelno",
  "town" : "Trebelno",
  "lat" : 45.91178,
  "lng" : 15.15064,
  "deluje" : 1,
  "cena_KW" : "",
  "reklamni_tekst_baner" : "",
  "cena_na_vklop" : "",
  "opis" : "Plug & Charge",
  "opis_tip_prikljucka_vticnice" : "Mennekes Type 2 Socket@15 kW"
}, {
  "id" : 1029,
  "name" : "Mokronog Trebelno pri pokopališču Schuko",
  "address" : "Trebelno",
  "town" : "Trebelno",
  "lat" : 45.91178,
  "lng" : 15.15064,
  "deluje" : 1,
  "cena_KW" : "",
  "reklamni_tekst_baner" : "",
  "cena_na_vklop" : "",
  "opis" : "Plug & Charge",
  "opis_tip_prikljucka_vticnice" : "Schuko 230V@2 kW"
}, {
  "id" : 1047,
  "name" : "Sodražica Maticova Etno Hiša Type2",
  "address" : "Ravni dol",
  "town" : "Sodražica",
  "lat" : 45.745109,
  "lng" : 14.669742,
  "deluje" : 1,
  "cena_KW" : "",
  "reklamni_tekst_baner" : "",
  "cena_na_vklop" : "",
  "opis" : "Phone Call Mobile App",
  "opis_tip_prikljucka_vticnice" : "Mennekes Type 2 Socket@15 kW"
}, {
  "id" : 1049,
  "name" : "Sodražica Maticova Etno Hiša Schuko",
  "address" : "Ravni dol",
  "town" : "Sodražica",
  "lat" : 45.745109,
  "lng" : 14.669742,
  "deluje" : 1,
  "cena_KW" : "",
  "reklamni_tekst_baner" : "",
  "cena_na_vklop" : "",
  "opis" : "Phone Call Mobile App",
  "opis_tip_prikljucka_vticnice" : "Schuko 230V@2 kW"
}, {
  "id" : 1051,
  "name" : "Mokronog Trebelno Schuko L",
  "address" : "Pod gradom",
  "town" : "Mokronog",
  "lat" : 45.94245,
  "lng" : 15.145045,
  "deluje" : 1,
  "cena_KW" : "",
  "reklamni_tekst_baner" : "",
  "cena_na_vklop" : "",
  "opis" : "Phone Call Mobile App",
  "opis_tip_prikljucka_vticnice" : "Schuko 230V@3,6 kW"
}, {
  "id" : 1053,
  "name" : "Mokronog Trebelno Schuko R",
  "address" : "Pod gradom",
  "town" : "Mokronog",
  "lat" : 45.94245,
  "lng" : 15.145045,
  "deluje" : 1,
  "cena_KW" : "",
  "reklamni_tekst_baner" : "",
  "cena_na_vklop" : "",
  "opis" : "Phone Call Mobile App",
  "opis_tip_prikljucka_vticnice" : "Schuko 230V@3,6 kW"
}, {
  "id" : 1055,
  "name" : "Mokronog Trebelno CHAdeMO",
  "address" : "Pod gradom",
  "town" : "Mokronog",
  "lat" : 45.94245,
  "lng" : 15.145045,
  "deluje" : 1,
  "cena_KW" : "",
  "reklamni_tekst_baner" : "",
  "cena_na_vklop" : "",
  "opis" : "Phone Call Mobile App",
  "opis_tip_prikljucka_vticnice" : "CHAdeMO DCFC@15 kW"
}, {
  "id" : 1057,
  "name" : "Mokronog Trebelno CCS",
  "address" : "Pod gradom",
  "town" : "Mokronog",
  "lat" : 45.94245,
  "lng" : 15.145045,
  "deluje" : 1,
  "cena_KW" : "",
  "reklamni_tekst_baner" : "",
  "cena_na_vklop" : "",
  "opis" : "Phone Call Mobile App",
  "opis_tip_prikljucka_vticnice" : "CCS Combo@15 kW"
}, {
  "id" : 1071,
  "name" : "Ljubno pri občini Mennekes",
  "address" : "Cesta v Rastke",
  "town" : "Ljubno ob Savinji",
  "lat" : 46.343535,
  "lng" : 14.834075,
  "deluje" : 1,
  "cena_KW" : "",
  "reklamni_tekst_baner" : "",
  "cena_na_vklop" : "",
  "opis" : "Phone Call Mobile App",
  "opis_tip_prikljucka_vticnice" : "Mennekes Type 2 Socket@10 kW"
}, {
  "id" : 1073,
  "name" : "Ljubno pri občini Schuko",
  "address" : "Cesta v Rastke",
  "town" : "Ljubno ob Savinji",
  "lat" : 46.343535,
  "lng" : 14.834075,
  "deluje" : 1,
  "cena_KW" : "",
  "reklamni_tekst_baner" : "",
  "cena_na_vklop" : "",
  "opis" : "Phone Call Mobile App",
  "opis_tip_prikljucka_vticnice" : "Schuko 230V@2 kW"
}, {
  "id" : 1075,
  "name" : "Planinka hotel  Mennekes",
  "address" : "Plac",
  "town" : "Ljubno ob Savinji",
  "lat" : 46.342136,
  "lng" : 14.832906,
  "deluje" : 0,
  "cena_KW" : "",
  "reklamni_tekst_baner" : "",
  "cena_na_vklop" : "",
  "opis" : "Phone Call Mobile App",
  "opis_tip_prikljucka_vticnice" : "Mennekes Type 2 Socket@10 kW"
}, {
  "id" : 1077,
  "name" : "Planinka hotel Schuko",
  "address" : "Plac",
  "town" : "Ljubno ob Savinji",
  "lat" : 46.342136,
  "lng" : 14.832906,
  "deluje" : 0,
  "cena_KW" : "",
  "reklamni_tekst_baner" : "",
  "cena_na_vklop" : "",
  "opis" : "Phone Call Mobile App",
  "opis_tip_prikljucka_vticnice" : "Schuko 230V@2 kW"
}, {
  "id" : 1079,
  "name" : "Ljubno Davidov hram Mennekes",
  "address" : "Loke",
  "town" : "Ljubno ob Savinji",
  "lat" : 46.338359,
  "lng" : 14.842506,
  "deluje" : 1,
  "cena_KW" : "",
  "reklamni_tekst_baner" : "",
  "cena_na_vklop" : "",
  "opis" : "Phone Call Mobile App",
  "opis_tip_prikljucka_vticnice" : "Mennekes Type 2 Socket@10 kW"
}, {
  "id" : 1081,
  "name" : "Ljubno Davidov hram Schuko",
  "address" : "Loke",
  "town" : "Ljubno ob Savinji",
  "lat" : 46.338359,
  "lng" : 14.842506,
  "deluje" : 1,
  "cena_KW" : "",
  "reklamni_tekst_baner" : "",
  "cena_na_vklop" : "",
  "opis" : "Phone Call Mobile App",
  "opis_tip_prikljucka_vticnice" : "Schuko 230V@2 kW"
}, {
  "id" : 1083,
  "name" : "Gostišče Kegljišče  Mennekes",
  "address" : "Rore",
  "town" : "Ljubno ob Savinji",
  "lat" : 46.349264,
  "lng" : 14.820621,
  "deluje" : 1,
  "cena_KW" : "",
  "reklamni_tekst_baner" : "",
  "cena_na_vklop" : "",
  "opis" : "Phone Call Mobile App",
  "opis_tip_prikljucka_vticnice" : "Mennekes Type 2 Socket@10 kW"
}, {
  "id" : 1085,
  "name" : "Gostišče Kegljišče Schuko",
  "address" : "Rore",
  "town" : "Ljubno ob Savinji",
  "lat" : 46.349264,
  "lng" : 14.820621,
  "deluje" : 1,
  "cena_KW" : "",
  "reklamni_tekst_baner" : "",
  "cena_na_vklop" : "",
  "opis" : "Phone Call Mobile App",
  "opis_tip_prikljucka_vticnice" : "Schuko 230V@2 kW"
}, {
  "id" : 1087,
  "name" : "Mirna pri Športnem Parku Schuko L",
  "address" : "Sokolska ulica ",
  "town" : "Mirna",
  "lat" : 45.953365,
  "lng" : 15.059922,
  "deluje" : 1,
  "cena_KW" : "0.190",
  "reklamni_tekst_baner" : "",
  "cena_na_vklop" : "0.20",
  "opis" : "Phone Call Mobile App",
  "opis_tip_prikljucka_vticnice" : "Schuko 230V@2 kW"
}, {
  "id" : 1089,
  "name" : "Mirna pri Športnem Parku Mennekes",
  "address" : "Sokolska ulica ",
  "town" : "Mirna",
  "lat" : 45.953365,
  "lng" : 15.059922,
  "deluje" : 1,
  "cena_KW" : "0.190",
  "reklamni_tekst_baner" : "",
  "cena_na_vklop" : "0.20",
  "opis" : "Phone Call Mobile App",
  "opis_tip_prikljucka_vticnice" : "Mennekes Type 2 Socket@12 kW"
}, {
  "id" : 1091,
  "name" : "Mirna pri Športnem Parku Schuko R",
  "address" : "Sokolska ulica ",
  "town" : "Mirna",
  "lat" : 45.953365,
  "lng" : 15.059922,
  "deluje" : 1,
  "cena_KW" : "0.190",
  "reklamni_tekst_baner" : "",
  "cena_na_vklop" : "0.20",
  "opis" : "Phone Call Mobile App",
  "opis_tip_prikljucka_vticnice" : "Schuko 230V@2 kW"
}, {
  "id" : 1119,
  "name" : "Zdravstveni dom SLOVENSKA BISTRICA Mennekes",
  "address" : "Partizanska ulica",
  "town" : "SLOVENSKA BISTRICA",
  "lat" : 46.395444,
  "lng" : 15.561996,
  "deluje" : 1,
  "cena_KW" : "",
  "reklamni_tekst_baner" : "",
  "cena_na_vklop" : "",
  "opis" : "Phone Call Mobile App",
  "opis_tip_prikljucka_vticnice" : "Mennekes Type 2 Socket@10 kW"
}, {
  "id" : 1121,
  "name" : "Zdravstveni dom SLOVENSKA BISTRICA Schuko",
  "address" : "Partizanska ulica",
  "town" : "SLOVENSKA BISTRICA",
  "lat" : 46.395444,
  "lng" : 15.561996,
  "deluje" : 1,
  "cena_KW" : "",
  "reklamni_tekst_baner" : "",
  "cena_na_vklop" : "",
  "opis" : "Phone Call Mobile App",
  "opis_tip_prikljucka_vticnice" : "Schuko 230V@2 kW"
}, {
  "id" : 1123,
  "name" : "Večnamenski objekt Tinje Mennekes",
  "address" : "Tinje ",
  "town" : "Slovenska Bistrica",
  "lat" : 46.414937,
  "lng" : 15.499932,
  "deluje" : 1,
  "cena_KW" : "",
  "reklamni_tekst_baner" : "",
  "cena_na_vklop" : "",
  "opis" : "Phone Call Mobile App",
  "opis_tip_prikljucka_vticnice" : "Mennekes Type 2 Socket@10 kW"
}, {
  "id" : 1125,
  "name" : "Večnamenski objekt Tinje Schuko",
  "address" : "Tinje ",
  "town" : "Slovenska Bistrica",
  "lat" : 46.414937,
  "lng" : 15.499932,
  "deluje" : 1,
  "cena_KW" : "",
  "reklamni_tekst_baner" : "",
  "cena_na_vklop" : "",
  "opis" : "Phone Call Mobile App",
  "opis_tip_prikljucka_vticnice" : "Schuko 230V@2 kW"
}, {
  "id" : 1131,
  "name" : "Brinečev kmečki mlin Mennekes",
  "address" : "Spodnja Rečica",
  "town" : "Rečica ob Savinji",
  "lat" : 46.315753,
  "lng" : 14.929353,
  "deluje" : 0,
  "cena_KW" : "",
  "reklamni_tekst_baner" : "",
  "cena_na_vklop" : "",
  "opis" : "Phone Call Mobile App",
  "opis_tip_prikljucka_vticnice" : "Mennekes Type 2 Socket@10 kW"
}, {
  "id" : 1133,
  "name" : "Brinečev kmečki mlin Schuko",
  "address" : "Spodnja Rečica",
  "town" : "Rečica ob Savinji",
  "lat" : 46.315753,
  "lng" : 14.929353,
  "deluje" : 0,
  "cena_KW" : "",
  "reklamni_tekst_baner" : "",
  "cena_na_vklop" : "",
  "opis" : "Phone Call Mobile App",
  "opis_tip_prikljucka_vticnice" : "Schuko 230V@2 kW"
}, {
  "id" : 1147,
  "name" : "AC Parkauto Trg OF LEVA",
  "address" : "Trg Osvobodilne fronte",
  "town" : "Ljubljana",
  "lat" : 46.057885,
  "lng" : 14.508275,
  "deluje" : 1,
  "cena_KW" : "0.190",
  "reklamni_tekst_baner" : "",
  "cena_na_vklop" : "0.20",
  "opis" : "Phone Call Mobile App",
  "opis_tip_prikljucka_vticnice" : "Mennekes (samo 1 faza) Socket@3,6 kW"
}, {
  "id" : 1149,
  "name" : "AC Parkauto Trg OF DESNA",
  "address" : "Trg Osvobodilne fronte",
  "town" : "Ljubljana",
  "lat" : 46.057885,
  "lng" : 14.508275,
  "deluje" : 1,
  "cena_KW" : "0.210",
  "reklamni_tekst_baner" : "",
  "cena_na_vklop" : "0.20",
  "opis" : "Phone Call Mobile App",
  "opis_tip_prikljucka_vticnice" : "Mennekes Type 2 Socket@15 kW"
}, {
  "id" : 1151,
  "name" : "AC Parkauto Trg OF",
  "address" : "Trg Osvobodilne fronte",
  "town" : "Ljubljana",
  "lat" : 46.057885,
  "lng" : 14.508275,
  "deluje" : 1,
  "cena_KW" : "0.150",
  "reklamni_tekst_baner" : "",
  "cena_na_vklop" : "0.20",
  "opis" : "Phone Call Mobile App",
  "opis_tip_prikljucka_vticnice" : "Schuko 230V@2,2 kW"
}, {
  "id" : 1155,
  "name" : "Rečica ob Savinji Osnovna Šola ( Mennekes )",
  "address" : "Rečica ob Savinji",
  "town" : "Rečica ob Savinji",
  "lat" : 46.323579,
  "lng" : 14.921078,
  "deluje" : 1,
  "cena_KW" : "",
  "reklamni_tekst_baner" : "",
  "cena_na_vklop" : "",
  "opis" : "Phone Call Mobile App",
  "opis_tip_prikljucka_vticnice" : "Mennekes Type 2 Socket@10 kW"
}, {
  "id" : 1157,
  "name" : "Rečica ob Savinji Osnovna Šola ( Schuko L )",
  "address" : "Rečica ob Savinji",
  "town" : "Rečica ob Savinji",
  "lat" : 46.323579,
  "lng" : 14.921078,
  "deluje" : 1,
  "cena_KW" : "",
  "reklamni_tekst_baner" : "",
  "cena_na_vklop" : "",
  "opis" : "Phone Call Mobile App",
  "opis_tip_prikljucka_vticnice" : "Schuko 230V@2 kW"
}, {
  "id" : 1159,
  "name" : "Rečica ob Savinji Osnovna Šola ( Schuko R )",
  "address" : "Rečica ob Savinji",
  "town" : "Rečica ob Savinji",
  "lat" : 46.323579,
  "lng" : 14.921078,
  "deluje" : 1,
  "cena_KW" : "",
  "reklamni_tekst_baner" : "",
  "cena_na_vklop" : "",
  "opis" : "Phone Call Mobile App",
  "opis_tip_prikljucka_vticnice" : "Schuko 230V@2 kW"
}, {
  "id" : 1163,
  "name" : "Kamp Menina Mennekes",
  "address" : "Varpolje",
  "town" : "Rečica ob Savinji",
  "lat" : 46.31154,
  "lng" : 14.909346,
  "deluje" : 0,
  "cena_KW" : "",
  "reklamni_tekst_baner" : "",
  "cena_na_vklop" : "",
  "opis" : "Phone Call Mobile App",
  "opis_tip_prikljucka_vticnice" : "Mennekes Type 2 Socket@10 kW"
}, {
  "id" : 1165,
  "name" : "Kamp Menina Schuko",
  "address" : "Varpolje",
  "town" : "Rečica ob Savinji",
  "lat" : 46.31154,
  "lng" : 14.909346,
  "deluje" : 0,
  "cena_KW" : "",
  "reklamni_tekst_baner" : "",
  "cena_na_vklop" : "",
  "opis" : "Phone Call Mobile App",
  "opis_tip_prikljucka_vticnice" : "Schuko 230V@2 kW"
}, {
  "id" : 1167,
  "name" : "Gostišče Atelšek Mennekes",
  "address" : "Dol - Suha",
  "town" : "Rečica ob Savinji",
  "lat" : 46.344062,
  "lng" : 14.916717,
  "deluje" : 0,
  "cena_KW" : "",
  "reklamni_tekst_baner" : "",
  "cena_na_vklop" : "",
  "opis" : "Phone Call Mobile App",
  "opis_tip_prikljucka_vticnice" : "Mennekes Type 2 Socket@10 kW"
}, {
  "id" : 1169,
  "name" : "Gostišče Atelšek Schuko",
  "address" : "Dol - Suha",
  "town" : "Rečica ob Savinji",
  "lat" : 46.344062,
  "lng" : 14.916717,
  "deluje" : 0,
  "cena_KW" : "",
  "reklamni_tekst_baner" : "",
  "cena_na_vklop" : "",
  "opis" : "Phone Call Mobile App",
  "opis_tip_prikljucka_vticnice" : "Schuko 230V@2 kW"
}, {
  "id" : 1171,
  "name" : "Kungota pri Ptuju Mennekes",
  "address" : "Kungota pri Ptuju",
  "town" : "Kidričevo",
  "lat" : 46.423558,
  "lng" : 15.789202,
  "deluje" : 1,
  "cena_KW" : "",
  "reklamni_tekst_baner" : "",
  "cena_na_vklop" : "",
  "opis" : "Phone Call Mobile App",
  "opis_tip_prikljucka_vticnice" : "Mennekes Type 2 Socket@10 kW"
}, {
  "id" : 1173,
  "name" : "Kungota pri Ptuju Schuko",
  "address" : "Kungota pri Ptuju",
  "town" : "Kidričevo",
  "lat" : 46.423558,
  "lng" : 15.789202,
  "deluje" : 1,
  "cena_KW" : "",
  "reklamni_tekst_baner" : "",
  "cena_na_vklop" : "",
  "opis" : "Phone Call Mobile App",
  "opis_tip_prikljucka_vticnice" : "Schuko 230V@3,6 kW"
}, {
  "id" : 1175,
  "name" : "Apače športni park Mennekes",
  "address" : "apače",
  "town" : "Lovrenc Na dravskem polju",
  "lat" : 46.382753,
  "lng" : 15.802071,
  "deluje" : 1,
  "cena_KW" : "",
  "reklamni_tekst_baner" : "",
  "cena_na_vklop" : "",
  "opis" : "Phone Call Mobile App",
  "opis_tip_prikljucka_vticnice" : "Mennekes Type 2 Socket@10 kW"
}, {
  "id" : 1177,
  "name" : "Apače športni park Schuko",
  "address" : "apače",
  "town" : "Lovrenc Na dravskem polju",
  "lat" : 46.382753,
  "lng" : 15.802071,
  "deluje" : 1,
  "cena_KW" : "",
  "reklamni_tekst_baner" : "",
  "cena_na_vklop" : "",
  "opis" : "Phone Call Mobile App",
  "opis_tip_prikljucka_vticnice" : "Schuko 230V@2 kW"
}, {
  "id" : 1179,
  "name" : "Ljubno Šport center Prodnik Mennekes",
  "address" : "Juvanje",
  "town" : "Ljubno ob Savinji",
  "lat" : 46.328472,
  "lng" : 14.86051,
  "deluje" : 1,
  "cena_KW" : "",
  "reklamni_tekst_baner" : "",
  "cena_na_vklop" : "",
  "opis" : "Phone Call Mobile App",
  "opis_tip_prikljucka_vticnice" : "Mennekes Type 2 Socket@10 kW"
}, {
  "id" : 1181,
  "name" : "Ljubno Šport center Prodnik Schuko",
  "address" : "Juvanje",
  "town" : "Ljubno ob Savinji",
  "lat" : 46.328472,
  "lng" : 14.86051,
  "deluje" : 1,
  "cena_KW" : "",
  "reklamni_tekst_baner" : "",
  "cena_na_vklop" : "",
  "opis" : "Phone Call Mobile App",
  "opis_tip_prikljucka_vticnice" : "Schuko 230V@2 kW"
}, {
  "id" : 1183,
  "name" : "Prenočišča Prodnik Type2",
  "address" : "Juvanje",
  "town" : "Ljubno ob Savinji",
  "lat" : 46.328455,
  "lng" : 14.860529,
  "deluje" : 1,
  "cena_KW" : "",
  "reklamni_tekst_baner" : "",
  "cena_na_vklop" : "",
  "opis" : "Phone Call Mobile App",
  "opis_tip_prikljucka_vticnice" : "Mennekes Type 2 Socket@10 kW"
}, {
  "id" : 1187,
  "name" : "Gostišče Prodnik DC CHAdeMO",
  "address" : "Juvanje",
  "town" : "Ljubno ob Savinji",
  "lat" : 46.328305,
  "lng" : 14.860403,
  "deluje" : 1,
  "cena_KW" : "0.190",
  "reklamni_tekst_baner" : "",
  "cena_na_vklop" : "0.20",
  "opis" : "Phone Call Mobile App",
  "opis_tip_prikljucka_vticnice" : "CHAdeMO DCFC@30 kW"
}, {
  "id" : 1189,
  "name" : "Gostišče Prodnik DC CCS",
  "address" : "Juvanje",
  "town" : "Ljubno ob Savinji",
  "lat" : 46.328305,
  "lng" : 14.860403,
  "deluje" : 1,
  "cena_KW" : "0.190",
  "reklamni_tekst_baner" : "",
  "cena_na_vklop" : "0.20",
  "opis" : "Phone Call Mobile App",
  "opis_tip_prikljucka_vticnice" : "CCS Combo@30 kW"
}, {
  "id" : 1191,
  "name" : "Gostišče Prodnik DC Schuko",
  "address" : "Juvanje",
  "town" : "Ljubno ob Savinji",
  "lat" : 46.328305,
  "lng" : 14.860403,
  "deluje" : 1,
  "cena_KW" : "",
  "reklamni_tekst_baner" : "",
  "cena_na_vklop" : "",
  "opis" : "Phone Call Mobile App",
  "opis_tip_prikljucka_vticnice" : "Schuko 230V@2 kW"
}, {
  "id" : 1193,
  "name" : "Gostišče Prodnik DC Schuko",
  "address" : "Juvanje",
  "town" : "Ljubno ob Savinji",
  "lat" : 46.328305,
  "lng" : 14.860403,
  "deluje" : 1,
  "cena_KW" : "",
  "reklamni_tekst_baner" : "",
  "cena_na_vklop" : "",
  "opis" : "Phone Call Mobile App",
  "opis_tip_prikljucka_vticnice" : "Schuko 230V@2 kW"
}, {
  "id" : 1195,
  "name" : "Športno rekreacijski center Green Lake DC CHAdeMO",
  "address" : "Prepolje",
  "town" : "Lovrenc na Dravskem polju",
  "lat" : 46.428751,
  "lng" : 15.762678,
  "deluje" : 1,
  "cena_KW" : "",
  "reklamni_tekst_baner" : "",
  "cena_na_vklop" : "",
  "opis" : "Phone Call Mobile App",
  "opis_tip_prikljucka_vticnice" : "CHAdeMO DCFC@15 kW"
}, {
  "id" : 1197,
  "name" : "Športno rekreacijski center Green Lake DC CCS",
  "address" : "Prepolje",
  "town" : "Lovrenc na Dravskem polju",
  "lat" : 46.428751,
  "lng" : 15.762678,
  "deluje" : 1,
  "cena_KW" : "",
  "reklamni_tekst_baner" : "",
  "cena_na_vklop" : "",
  "opis" : "Phone Call Mobile App",
  "opis_tip_prikljucka_vticnice" : "CCS Combo@15 kW"
}, {
  "id" : 1199,
  "name" : "Športno rekreacijski center Green Lake Schuko L",
  "address" : "Prepolje",
  "town" : "Lovrenc na Dravskem polju",
  "lat" : 46.428751,
  "lng" : 15.762678,
  "deluje" : 1,
  "cena_KW" : "",
  "reklamni_tekst_baner" : "",
  "cena_na_vklop" : "",
  "opis" : "Phone Call Mobile App",
  "opis_tip_prikljucka_vticnice" : "Schuko 230V@2 kW"
}, {
  "id" : 1201,
  "name" : "Športno rekreacijski center Green Lake Schuko R",
  "address" : "Prepolje",
  "town" : "Lovrenc na Dravskem polju",
  "lat" : 46.428751,
  "lng" : 15.762678,
  "deluje" : 1,
  "cena_KW" : "",
  "reklamni_tekst_baner" : "",
  "cena_na_vklop" : "",
  "opis" : "Phone Call Mobile App",
  "opis_tip_prikljucka_vticnice" : "Schuko 230V@2 kW"
}, {
  "id" : 1205,
  "name" : "Solarna polnilnica za kolesa (POLNILEC BOSCH)",
  "address" : "Veselova ulica",
  "town" : "Maribor",
  "lat" : 46.543099,
  "lng" : 15.623002,
  "deluje" : 0,
  "cena_KW" : "",
  "reklamni_tekst_baner" : "",
  "cena_na_vklop" : "",
  "opis" : "Phone Call Mobile App",
  "opis_tip_prikljucka_vticnice" : "POLNILEC BOSCH"
}, {
  "id" : 1207,
  "name" : "Solarna polnilnica za kolesa (VTIČNICA 230V)",
  "address" : "Veselova ulica",
  "town" : "Maribor",
  "lat" : 46.543099,
  "lng" : 15.623002,
  "deluje" : 0,
  "cena_KW" : "",
  "reklamni_tekst_baner" : "",
  "cena_na_vklop" : "",
  "opis" : "Phone Call Mobile App",
  "opis_tip_prikljucka_vticnice" : "VTIČNICA 230V"
}, {
  "id" : 1229,
  "name" : "TIC Schuko L",
  "address" : "Trg svobode",
  "town" : "Slovenska Bistrica",
  "lat" : 46.392504,
  "lng" : 15.573164,
  "deluje" : 1,
  "cena_KW" : "",
  "reklamni_tekst_baner" : "",
  "cena_na_vklop" : "",
  "opis" : "Phone Call Mobile App",
  "opis_tip_prikljucka_vticnice" : "Schuko 230V@2 kW"
}, {
  "id" : 1231,
  "name" : "TIC Schuko R",
  "address" : "Trg svobode",
  "town" : "Slovenska Bistrica",
  "lat" : 46.392504,
  "lng" : 15.573164,
  "deluje" : 1,
  "cena_KW" : "",
  "reklamni_tekst_baner" : "",
  "cena_na_vklop" : "",
  "opis" : "Phone Call Mobile App",
  "opis_tip_prikljucka_vticnice" : "Schuko 230V@2 kW"
}, {
  "id" : 1233,
  "name" : "TIC DC 15kW CHAdeMO",
  "address" : "Trg svobode",
  "town" : "Slovenska Bistrica",
  "lat" : 46.392504,
  "lng" : 15.573164,
  "deluje" : 1,
  "cena_KW" : "",
  "reklamni_tekst_baner" : "",
  "cena_na_vklop" : "",
  "opis" : "Phone Call Mobile App",
  "opis_tip_prikljucka_vticnice" : "CHAdeMO DCFC@15 kW"
}, {
  "id" : 1235,
  "name" : "TIC DC 15kW CCS",
  "address" : "Trg svobode",
  "town" : "Slovenska Bistrica",
  "lat" : 46.392504,
  "lng" : 15.573164,
  "deluje" : 1,
  "cena_KW" : "",
  "reklamni_tekst_baner" : "",
  "cena_na_vklop" : "",
  "opis" : "Phone Call Mobile App",
  "opis_tip_prikljucka_vticnice" : "CCS Combo@15 kW"
}, {
  "id" : 1239,
  "name" : "Daruvar DC CHAdeMO",
  "address" : "Trg Kralja Tomislava",
  "town" : "Daruvar",
  "lat" : 45.593647,
  "lng" : 17.22382,
  "deluje" : 1,
  "cena_KW" : "",
  "reklamni_tekst_baner" : "",
  "cena_na_vklop" : "",
  "opis" : "Phone Call Mobile App",
  "opis_tip_prikljucka_vticnice" : "CHAdeMO DCFC@15 kW"
}, {
  "id" : 1241,
  "name" : "Daruvar DC CCS",
  "address" : "Trg Kralja Tomislava",
  "town" : "Daruvar",
  "lat" : 45.593647,
  "lng" : 17.22382,
  "deluje" : 1,
  "cena_KW" : "",
  "reklamni_tekst_baner" : "",
  "cena_na_vklop" : "",
  "opis" : "Phone Call Mobile App",
  "opis_tip_prikljucka_vticnice" : "CCS Combo@15 kW"
}, {
  "id" : 1243,
  "name" : "Daruvar AC Mennekes",
  "address" : "Trg kralja Tomislava",
  "town" : "Daruvar",
  "lat" : 45.593647,
  "lng" : 17.22382,
  "deluje" : 1,
  "cena_KW" : "",
  "reklamni_tekst_baner" : "",
  "cena_na_vklop" : "",
  "opis" : "Phone Call Mobile App",
  "opis_tip_prikljucka_vticnice" : "Mennekes Type 2 Socket@15 kW"
}, {
  "id" : 1245,
  "name" : "Daruvar AC Schuko L",
  "address" : "Trg kralja Tomislava",
  "town" : "Daruvar",
  "lat" : 45.593647,
  "lng" : 17.22382,
  "deluje" : 1,
  "cena_KW" : "",
  "reklamni_tekst_baner" : "",
  "cena_na_vklop" : "",
  "opis" : "Phone Call Mobile App",
  "opis_tip_prikljucka_vticnice" : "Schuko 230V@2 kW"
}, {
  "id" : 1247,
  "name" : "Daruvar AC Schuko R",
  "address" : "Trg kralja Tomislava",
  "town" : "Daruvar",
  "lat" : 45.593647,
  "lng" : 17.22382,
  "deluje" : 1,
  "cena_KW" : "",
  "reklamni_tekst_baner" : "",
  "cena_na_vklop" : "",
  "opis" : "Phone Call Mobile App",
  "opis_tip_prikljucka_vticnice" : "Schuko 230V@2 kW"
}, {
  "id" : 1249,
  "name" : "Ormož, Kmetija Ozmec Mennekes",
  "address" : "Cvetkovci",
  "town" : "Podgorci",
  "lat" : 46.411825,
  "lng" : 16.065595,
  "deluje" : 1,
  "cena_KW" : "",
  "reklamni_tekst_baner" : "",
  "cena_na_vklop" : "",
  "opis" : "Phone Call Mobile App",
  "opis_tip_prikljucka_vticnice" : "Mennekes Type 2 Socket@10 kW"
}, {
  "id" : 1251,
  "name" : "Ormož, \nKmetija Ozmec Schuko",
  "address" : "Cvetkovci",
  "town" : "Podgorci",
  "lat" : 46.411825,
  "lng" : 16.065595,
  "deluje" : 1,
  "cena_KW" : "",
  "reklamni_tekst_baner" : "",
  "cena_na_vklop" : "",
  "opis" : "Phone Call Mobile App",
  "opis_tip_prikljucka_vticnice" : "Schuko 230V@2 kW"
}, {
  "id" : 1253,
  "name" : "Ormož TK Hlebec",
  "address" : "Kog",
  "town" : "Kog",
  "lat" : 46.459615,
  "lng" : 16.243762,
  "deluje" : 0,
  "cena_KW" : "",
  "reklamni_tekst_baner" : "",
  "cena_na_vklop" : "",
  "opis" : "Phone Call Mobile App",
  "opis_tip_prikljucka_vticnice" : "Mennekes Type 2 Socket@15 kW"
}, {
  "id" : 1255,
  "name" : "Ormož TK Hlebec",
  "address" : "Kog",
  "town" : "Kog",
  "lat" : 46.459615,
  "lng" : 16.243762,
  "deluje" : 0,
  "cena_KW" : "",
  "reklamni_tekst_baner" : "",
  "cena_na_vklop" : "",
  "opis" : "Phone Call Mobile App",
  "opis_tip_prikljucka_vticnice" : "Schuko 230V@2 kW"
}, {
  "id" : 1257,
  "name" : "Ormoz Gostilna Marta",
  "address" : "Cvetkovci",
  "town" : "Podgorci",
  "lat" : 46.414123,
  "lng" : 16.06524,
  "deluje" : 1,
  "cena_KW" : "",
  "reklamni_tekst_baner" : "",
  "cena_na_vklop" : "",
  "opis" : "Phone Call Mobile App",
  "opis_tip_prikljucka_vticnice" : "Mennekes Type 2 Socket@15 kW"
}, {
  "id" : 1259,
  "name" : "Ormoz Gostilna Marta",
  "address" : "Cvetkovci",
  "town" : "Podgorci",
  "lat" : 46.414123,
  "lng" : 16.06524,
  "deluje" : 1,
  "cena_KW" : "",
  "reklamni_tekst_baner" : "",
  "cena_na_vklop" : "",
  "opis" : "Phone Call Mobile App",
  "opis_tip_prikljucka_vticnice" : "Schuko 230V@2 kW"
}, {
  "id" : 1261,
  "name" : "Ormoz DC - Gostilna Marta",
  "address" : "Cvetkovci",
  "town" : "Podgorci",
  "lat" : 46.414013,
  "lng" : 16.065286,
  "deluje" : 1,
  "cena_KW" : "0.220",
  "reklamni_tekst_baner" : "",
  "cena_na_vklop" : "0.25",
  "opis" : "Phone Call Mobile App",
  "opis_tip_prikljucka_vticnice" : "CHAdeMO DCFC@15 kW"
}, {
  "id" : 1263,
  "name" : "Ormoz DC - Gostilna Marta",
  "address" : "Cvetkovci",
  "town" : "Podgorci",
  "lat" : 46.414013,
  "lng" : 16.065286,
  "deluje" : 1,
  "cena_KW" : "0.220",
  "reklamni_tekst_baner" : "",
  "cena_na_vklop" : "0.25",
  "opis" : "Phone Call Mobile App",
  "opis_tip_prikljucka_vticnice" : "CCS Combo@15 kW"
}, {
  "id" : 1265,
  "name" : "Ormoz DC - Gostilna Marta",
  "address" : "Cvetkovci",
  "town" : "Podgorci",
  "lat" : 46.414013,
  "lng" : 16.065286,
  "deluje" : 1,
  "cena_KW" : "",
  "reklamni_tekst_baner" : "",
  "cena_na_vklop" : "",
  "opis" : "Phone Call Mobile App",
  "opis_tip_prikljucka_vticnice" : "Schuko 230V@2 kW"
}, {
  "id" : 1267,
  "name" : "Ormoz DC - Gostilna Marta",
  "address" : "Cvetkovci",
  "town" : "Podgorci",
  "lat" : 46.414013,
  "lng" : 16.065286,
  "deluje" : 1,
  "cena_KW" : "",
  "reklamni_tekst_baner" : "",
  "cena_na_vklop" : "",
  "opis" : "Phone Call Mobile App",
  "opis_tip_prikljucka_vticnice" : "Schuko 230V@2 kW"
}, {
  "id" : 1269,
  "name" : "Ormoz GOSTILNA OZMEC CHADEMO",
  "address" : "Cvetkovci",
  "town" : "Podgorci",
  "lat" : 46.412144,
  "lng" : 16.059285,
  "deluje" : 1,
  "cena_KW" : "",
  "reklamni_tekst_baner" : "",
  "cena_na_vklop" : "",
  "opis" : "Phone Call Mobile App",
  "opis_tip_prikljucka_vticnice" : "CHAdeMO DCFC@10 kW"
}, {
  "id" : 1271,
  "name" : "Ormoz GOSTILNA OZMEC CCS",
  "address" : "Cvetkovci",
  "town" : "Podgorci",
  "lat" : 46.412144,
  "lng" : 16.059285,
  "deluje" : 1,
  "cena_KW" : "",
  "reklamni_tekst_baner" : "",
  "cena_na_vklop" : "",
  "opis" : "Phone Call Mobile App",
  "opis_tip_prikljucka_vticnice" : "CCS Combo@10 kW"
}, {
  "id" : 1273,
  "name" : "Ormoz GOSTILNA OZMEC",
  "address" : "Cvetkovci",
  "town" : "Podgorci",
  "lat" : 46.412144,
  "lng" : 16.059285,
  "deluje" : 1,
  "cena_KW" : "",
  "reklamni_tekst_baner" : "",
  "cena_na_vklop" : "",
  "opis" : "Phone Call Mobile App",
  "opis_tip_prikljucka_vticnice" : "Schuko 230V@2 kW"
}, {
  "id" : 1275,
  "name" : "Ormoz GOSTILNA OZMEC",
  "address" : "Cvetkovci",
  "town" : "Podgorci",
  "lat" : 46.412144,
  "lng" : 16.059285,
  "deluje" : 1,
  "cena_KW" : "",
  "reklamni_tekst_baner" : "",
  "cena_na_vklop" : "",
  "opis" : "Phone Call Mobile App",
  "opis_tip_prikljucka_vticnice" : "Schuko 230V@2 kW"
}, {
  "id" : 1457,
  "name" : "Prenočišča Prodnik Schuko",
  "address" : "Juvanje",
  "town" : "Ljubno ob Savinji",
  "lat" : 46.328455,
  "lng" : 14.860529,
  "deluje" : 1,
  "cena_KW" : "",
  "reklamni_tekst_baner" : "",
  "cena_na_vklop" : "",
  "opis" : "Phone Call Mobile App",
  "opis_tip_prikljucka_vticnice" : "Schuko 230V@2 kW"
}, {
  "id" : 1463,
  "name" : "Poslovna cona Vrbje I",
  "address" : "Vrbje",
  "town" : "Žalec",
  "lat" : 46.241124,
  "lng" : 15.152243,
  "deluje" : 1,
  "cena_KW" : "0.200",
  "reklamni_tekst_baner" : "",
  "cena_na_vklop" : "0.20",
  "opis" : "Phone Call Mobile App",
  "opis_tip_prikljucka_vticnice" : "Mennekes Type 2 Socket@22 kW"
}, {
  "id" : 1465,
  "name" : "Poslovna cona Vrbje I",
  "address" : "Vrbje",
  "town" : "Žalec",
  "lat" : 46.241124,
  "lng" : 15.152243,
  "deluje" : 1,
  "cena_KW" : "0.200",
  "reklamni_tekst_baner" : "",
  "cena_na_vklop" : "0.20",
  "opis" : "Phone Call Mobile App",
  "opis_tip_prikljucka_vticnice" : "Schuko 230V@3.6 kW"
}, {
  "id" : 1467,
  "name" : "Poslovna cona Vrbje I",
  "address" : "Vrbje",
  "town" : "Žalec",
  "lat" : 46.241124,
  "lng" : 15.152243,
  "deluje" : 1,
  "cena_KW" : "0.200",
  "reklamni_tekst_baner" : "",
  "cena_na_vklop" : "0.20",
  "opis" : "Phone Call Mobile App",
  "opis_tip_prikljucka_vticnice" : "Schuko 230V@3.6 kW"
}, {
  "id" : 1469,
  "name" : "Poslovna cona Vrbje II",
  "address" : "Vrbje",
  "town" : "Žalec",
  "lat" : 46.241126,
  "lng" : 15.152209,
  "deluje" : 1,
  "cena_KW" : "0.200",
  "reklamni_tekst_baner" : "",
  "cena_na_vklop" : "0.20",
  "opis" : "Phone Call Mobile App",
  "opis_tip_prikljucka_vticnice" : "Mennekes Type 2 Socket@22 kW"
}, {
  "id" : 1471,
  "name" : "Poslovna cona Vrbje II",
  "address" : "Vrbje",
  "town" : "Žalec",
  "lat" : 46.241126,
  "lng" : 15.152209,
  "deluje" : 1,
  "cena_KW" : "0.200",
  "reklamni_tekst_baner" : "",
  "cena_na_vklop" : "0.20",
  "opis" : "Phone Call Mobile App",
  "opis_tip_prikljucka_vticnice" : "Schuko 230V@3.6 kW"
}, {
  "id" : 1473,
  "name" : "Poslovna cona Vrbje II",
  "address" : "Vrbje",
  "town" : "Žalec",
  "lat" : 46.241126,
  "lng" : 15.152209,
  "deluje" : 1,
  "cena_KW" : "0.200",
  "reklamni_tekst_baner" : "",
  "cena_na_vklop" : "0.20",
  "opis" : "Phone Call Mobile App",
  "opis_tip_prikljucka_vticnice" : "Schuko 230V@3.6 kW"
}, {
  "id" : 1481,
  "name" : "Ajzenpon, Senmed DC 1000V,300A CCS",
  "address" : "Preradovičeva",
  "town" : "Maribor",
  "lat" : 46.554074,
  "lng" : 15.629319,
  "deluje" : 1,
  "cena_KW" : "0.240",
  "reklamni_tekst_baner" : "",
  "cena_na_vklop" : "0.20",
  "opis" : "Phone Call Mobile App",
  "opis_tip_prikljucka_vticnice" : "CCS Combo@120 kW"
}, {
  "id" : 1483,
  "name" : "Ajzenpon, Senmed DC 1000V,200A CHAdeMO",
  "address" : "Preradovičeva",
  "town" : "Maribor",
  "lat" : 46.554074,
  "lng" : 15.629319,
  "deluje" : 1,
  "cena_KW" : "0.240",
  "reklamni_tekst_baner" : "",
  "cena_na_vklop" : "0.20",
  "opis" : "Phone Call Mobile App",
  "opis_tip_prikljucka_vticnice" : "CHAdeMO DCFC@100 kW"
}, {
  "id" : 1485,
  "name" : "Ajzenpon, Senmed AC",
  "address" : "Preradovičeva",
  "town" : "Maribor",
  "lat" : 46.554075,
  "lng" : 15.629319,
  "deluje" : 1,
  "cena_KW" : "0.150",
  "reklamni_tekst_baner" : "",
  "cena_na_vklop" : "0.20",
  "opis" : "Phone Call Mobile App",
  "opis_tip_prikljucka_vticnice" : "Mennekes Type 2 Socket@14 kW"
}, {
  "id" : 1487,
  "name" : "Ajzenpon, Senmed AC",
  "address" : "Preradovičeva",
  "town" : "Maribor",
  "lat" : 46.554075,
  "lng" : 15.629319,
  "deluje" : 1,
  "cena_KW" : "",
  "reklamni_tekst_baner" : "",
  "cena_na_vklop" : "",
  "opis" : "Phone Call Mobile App",
  "opis_tip_prikljucka_vticnice" : "Schuko L 230V@3,6 kW"
}, {
  "id" : 1489,
  "name" : "Ajzenpon, Senmed AC",
  "address" : "Preradovičeva",
  "town" : "Maribor",
  "lat" : 46.554075,
  "lng" : 15.629319,
  "deluje" : 1,
  "cena_KW" : "",
  "reklamni_tekst_baner" : "",
  "cena_na_vklop" : "",
  "opis" : "Phone Call Mobile App",
  "opis_tip_prikljucka_vticnice" : "Schuko R 230V@3,6 kW"
}, {
  "id" : 1495,
  "name" : "IVANEC trgovski centerMIPCRO CHAdeMO",
  "address" : "Ul. Ivana Gorana Kovačića",
  "town" : "Ivanec",
  "lat" : 46.229275,
  "lng" : 16.122269,
  "deluje" : 1,
  "cena_KW" : "0.340",
  "reklamni_tekst_baner" : "",
  "cena_na_vklop" : "",
  "opis" : "Phone Call Mobile App",
  "opis_tip_prikljucka_vticnice" : "CHAdeMO DCFC@60 kW"
}, {
  "id" : 1497,
  "name" : "IVANEC, trgovski center, MIPCRO CCS",
  "address" : "Ul. Ivana Gorana Kovačića",
  "town" : "Ivanec",
  "lat" : 46.229275,
  "lng" : 16.122269,
  "deluje" : 1,
  "cena_KW" : "0.340",
  "reklamni_tekst_baner" : "",
  "cena_na_vklop" : "",
  "opis" : "Phone Call Mobile App",
  "opis_tip_prikljucka_vticnice" : "CCS Combo@"
}, {
  "id" : 1499,
  "name" : "IVANEC - trgovski center, MIPCRO , tip2",
  "address" : "Ul. Ivana Gorana Kovačića",
  "town" : "Ivanec",
  "lat" : 46.229275,
  "lng" : 16.122269,
  "deluje" : 1,
  "cena_KW" : "0.340",
  "reklamni_tekst_baner" : "",
  "cena_na_vklop" : "",
  "opis" : "Phone Call Mobile App",
  "opis_tip_prikljucka_vticnice" : "Mennekes Type 2 Socket@"
}, {
  "id" : 1501,
  "name" : "IVANEC - trgovski center, MIPCRO , šuko L",
  "address" : "Ul. Ivana Gorana Kovačića",
  "town" : "Ivanec",
  "lat" : 46.229275,
  "lng" : 16.122269,
  "deluje" : 1,
  "cena_KW" : "0.310",
  "reklamni_tekst_baner" : "",
  "cena_na_vklop" : "",
  "opis" : "Phone Call Mobile App",
  "opis_tip_prikljucka_vticnice" : "Schuko 230V@3,6 kW"
}, {
  "id" : 1503,
  "name" : "IVANEC - trgovski center, MIPCRO, šuko D",
  "address" : "Ul. Ivana Gorana Kovačića",
  "town" : "Ivanec",
  "lat" : 46.229275,
  "lng" : 16.122269,
  "deluje" : 1,
  "cena_KW" : "0.310",
  "reklamni_tekst_baner" : "",
  "cena_na_vklop" : "",
  "opis" : "Phone Call Mobile App",
  "opis_tip_prikljucka_vticnice" : "Schuko 230V@3,6 kW"
}, {
  "id" : 1505,
  "name" : "OBČINA ROGATEC AC",
  "address" : "Pot k ribniku",
  "town" : "Rogatec",
  "lat" : 46.230591,
  "lng" : 15.697632,
  "deluje" : 1,
  "cena_KW" : "",
  "reklamni_tekst_baner" : "",
  "cena_na_vklop" : "",
  "opis" : "Phone Call Mobile App",
  "opis_tip_prikljucka_vticnice" : "Mennekes Type 2 Socket@15 kW"
}, {
  "id" : 1507,
  "name" : "OBČINA ROGATEC AC",
  "address" : "Pot k ribniku",
  "town" : "Rogatec",
  "lat" : 46.230591,
  "lng" : 15.697632,
  "deluje" : 1,
  "cena_KW" : "",
  "reklamni_tekst_baner" : "",
  "cena_na_vklop" : "",
  "opis" : "Phone Call Mobile App",
  "opis_tip_prikljucka_vticnice" : "Schuko 230V@2 kW"
}, {
  "id" : 1509,
  "name" : "OBČINA ROGATEC AC",
  "address" : "Pot k ribniku",
  "town" : "Rogatec",
  "lat" : 46.230591,
  "lng" : 15.697632,
  "deluje" : 1,
  "cena_KW" : "",
  "reklamni_tekst_baner" : "",
  "cena_na_vklop" : "",
  "opis" : "Phone Call Mobile App",
  "opis_tip_prikljucka_vticnice" : "Schuko 230V@2 kW"
}, {
  "id" : 1519,
  "name" : "Žalec Vrbje 6 koles",
  "address" : "Poslovna cona",
  "town" : "Žalec",
  "lat" : 46.241137,
  "lng" : 15.152225,
  "deluje" : 1,
  "cena_KW" : "",
  "reklamni_tekst_baner" : "",
  "cena_na_vklop" : "",
  "opis" : "Phone Call Mobile App",
  "opis_tip_prikljucka_vticnice" : "Schuko 230V@2 kW"
}, {
  "id" : 1541,
  "name" : "ARRIVA KOPER 1",
  "address" : "Ankaranska cesta",
  "town" : "Koper",
  "lat" : 45.545283,
  "lng" : 13.741168,
  "deluje" : 1,
  "cena_KW" : "",
  "reklamni_tekst_baner" : "",
  "cena_na_vklop" : "",
  "opis" : "Phone Call Mobile App",
  "opis_tip_prikljucka_vticnice" : "CHAdeMO DCFC@60 kW"
}, {
  "id" : 1543,
  "name" : "ARRIVA KOPER 2",
  "address" : "",
  "town" : "Koper",
  "lat" : 45.545283,
  "lng" : 13.741168,
  "deluje" : 1,
  "cena_KW" : "",
  "reklamni_tekst_baner" : "",
  "cena_na_vklop" : "",
  "opis" : "Phone Call Mobile App",
  "opis_tip_prikljucka_vticnice" : "CHAdeMO DCFC@30 kW"
}, {
  "id" : 1545,
  "name" : "ARRIVA KOPER 3 Mennekes AC",
  "address" : "",
  "town" : "Koper",
  "lat" : 45.545283,
  "lng" : 13.741168,
  "deluje" : 1,
  "cena_KW" : "",
  "reklamni_tekst_baner" : "",
  "cena_na_vklop" : "",
  "opis" : "Phone Call Mobile App",
  "opis_tip_prikljucka_vticnice" : "Mennekes Type 2 Socket@22 kW"
}, {
  "id" : 1547,
  "name" : "ARRIVA KOPER 3 Schuko R AC",
  "address" : "",
  "town" : "Koper",
  "lat" : 45.545283,
  "lng" : 13.741168,
  "deluje" : 1,
  "cena_KW" : "",
  "reklamni_tekst_baner" : "",
  "cena_na_vklop" : "",
  "opis" : "Phone Call Mobile App",
  "opis_tip_prikljucka_vticnice" : "Schuko  R  230V@3,6 kW"
}, {
  "id" : 1549,
  "name" : "ARRIVA KOPER 3 Schuko L AC",
  "address" : "",
  "town" : "Koper",
  "lat" : 45.545283,
  "lng" : 13.741168,
  "deluje" : 1,
  "cena_KW" : "",
  "reklamni_tekst_baner" : "",
  "cena_na_vklop" : "",
  "opis" : "Phone Call Mobile App",
  "opis_tip_prikljucka_vticnice" : "Schuko L 230V@3,6 kW"
}, {
  "id" : 1551,
  "name" : "Urban Ring AC 2 Hotel",
  "address" : "Dolenjska cesta",
  "town" : "Ljubljana",
  "lat" : 46.021112,
  "lng" : 14.541147,
  "deluje" : 1,
  "cena_KW" : "0.180",
  "reklamni_tekst_baner" : "",
  "cena_na_vklop" : "0.25",
  "opis" : "Phone Call Mobile App",
  "opis_tip_prikljucka_vticnice" : "Mennekes Type 2 Socket@22 kW"
}, {
  "id" : 1553,
  "name" : "Urban Ring AC 2 Hotel",
  "address" : "Dolenjska cesta",
  "town" : "Ljubljana",
  "lat" : 46.021112,
  "lng" : 14.541147,
  "deluje" : 1,
  "cena_KW" : "0.180",
  "reklamni_tekst_baner" : "",
  "cena_na_vklop" : "0.25",
  "opis" : "Phone Call Mobile App",
  "opis_tip_prikljucka_vticnice" : "Schuko 230V@2 kW"
}, {
  "id" : 1555,
  "name" : "Urban Ring AC 1 Peki",
  "address" : "Dolenjska cesta",
  "town" : "Ljubljana",
  "lat" : 46.022001,
  "lng" : 14.540362,
  "deluje" : 1,
  "cena_KW" : "0.180",
  "reklamni_tekst_baner" : "",
  "cena_na_vklop" : "0.25",
  "opis" : "Phone Call Mobile App",
  "opis_tip_prikljucka_vticnice" : "Mennekes Type 2 Socket@22 kW"
}, {
  "id" : 1557,
  "name" : "Urban Ring AC 1 Peki",
  "address" : "Dolenjska cesta",
  "town" : "Ljubljana",
  "lat" : 46.022001,
  "lng" : 14.540362,
  "deluje" : 1,
  "cena_KW" : "0.180",
  "reklamni_tekst_baner" : "",
  "cena_na_vklop" : "0.25",
  "opis" : "Phone Call Mobile App",
  "opis_tip_prikljucka_vticnice" : "Schuko 230V@2 kW"
}, {
  "id" : 1559,
  "name" : "ORMOŽ OPSEN AC",
  "address" : "Ljutomerska",
  "town" : "Ormož ",
  "lat" : 46.407864,
  "lng" : 16.157578,
  "deluje" : 1,
  "cena_KW" : "0.220",
  "reklamni_tekst_baner" : "",
  "cena_na_vklop" : "0.20",
  "opis" : "Phone Call Mobile App",
  "opis_tip_prikljucka_vticnice" : "Schuko 230V@2 kW"
}, {
  "id" : 1561,
  "name" : "ORMOŽ OPSEN AC",
  "address" : "Ljutomerska",
  "town" : "Ormož ",
  "lat" : 46.407848,
  "lng" : 16.1574,
  "deluje" : 1,
  "cena_KW" : "0.220",
  "reklamni_tekst_baner" : "",
  "cena_na_vklop" : "0.20",
  "opis" : "Phone Call Mobile App",
  "opis_tip_prikljucka_vticnice" : "Mennekes Type 2 Socket@22 kW"
}, {
  "id" : 1563,
  "name" : "ORMOŽ OPSEN AC",
  "address" : "Ljutomerska cesta",
  "town" : "Ormož",
  "lat" : 46.40787,
  "lng" : 16.157529,
  "deluje" : 1,
  "cena_KW" : "0.220",
  "reklamni_tekst_baner" : "",
  "cena_na_vklop" : "0.20",
  "opis" : "Phone Call Mobile App",
  "opis_tip_prikljucka_vticnice" : "Schuko 230V@2 kW"
}, {
  "id" : 1565,
  "name" : "ORMOŽ PANEL Svetinje pri šoli",
  "address" : "Svetinje",
  "town" : "Ivanjkovci",
  "lat" : 46.46214,
  "lng" : 16.16955,
  "deluje" : 1,
  "cena_KW" : "",
  "reklamni_tekst_baner" : "",
  "cena_na_vklop" : "",
  "opis" : "Phone Call Mobile App",
  "opis_tip_prikljucka_vticnice" : "Schuko 230V@2 kW"
}, {
  "id" : 1567,
  "name" : "ORMOŽ PANEL Ormož Grad",
  "address" : "Kolodvorska cesta",
  "town" : "Ormož",
  "lat" : 46.40755,
  "lng" : 16.15106,
  "deluje" : 1,
  "cena_KW" : "",
  "reklamni_tekst_baner" : "",
  "cena_na_vklop" : "",
  "opis" : "Phone Call Mobile App",
  "opis_tip_prikljucka_vticnice" : "Schuko 230V@2 kW"
}, {
  "id" : 1569,
  "name" : "ORMOŽ PANEL Ormož Kog pri šoli",
  "address" : "Kog",
  "town" : "Kog",
  "lat" : 46.45557,
  "lng" : 16.25369,
  "deluje" : 1,
  "cena_KW" : "",
  "reklamni_tekst_baner" : "",
  "cena_na_vklop" : "",
  "opis" : "Phone Call Mobile App",
  "opis_tip_prikljucka_vticnice" : "Schuko 230V@2 kW"
}, {
  "id" : 1571,
  "name" : "ORMOŽ PANEL Ormož Velika Nedelja",
  "address" : "Velika Nedelja",
  "town" : "Velika Nedelja",
  "lat" : 46.42002,
  "lng" : 16.11068,
  "deluje" : 1,
  "cena_KW" : "",
  "reklamni_tekst_baner" : "",
  "cena_na_vklop" : "",
  "opis" : "Phone Call Mobile App",
  "opis_tip_prikljucka_vticnice" : "Schuko 230V@2 kW"
}, {
  "id" : 1573,
  "name" : "ORMOŽ PANEL Središče ob Dravi",
  "address" : "Trg talcev",
  "town" : "Središče ob Dravi",
  "lat" : 46.39684,
  "lng" : 16.2718,
  "deluje" : 1,
  "cena_KW" : "",
  "reklamni_tekst_baner" : "",
  "cena_na_vklop" : "",
  "opis" : "Phone Call Mobile App",
  "opis_tip_prikljucka_vticnice" : "Schuko 230V@2 kW"
}, {
  "id" : 1575,
  "name" : "ORMOŽ PANEL Sveti Tomaž",
  "address" : "Savci",
  "town" : "Savci",
  "lat" : 46.471894,
  "lng" : 16.046769,
  "deluje" : 1,
  "cena_KW" : "",
  "reklamni_tekst_baner" : "",
  "cena_na_vklop" : "",
  "opis" : "Phone Call Mobile App",
  "opis_tip_prikljucka_vticnice" : "Schuko 230V@2 kW"
}, {
  "id" : 1577,
  "name" : "Mirna Peč AC Type2",
  "address" : "Trg",
  "town" : "Mirna Peč",
  "lat" : 45.859071,
  "lng" : 15.083772,
  "deluje" : 1,
  "cena_KW" : "",
  "reklamni_tekst_baner" : "",
  "cena_na_vklop" : "",
  "opis" : "Phone Call Mobile App",
  "opis_tip_prikljucka_vticnice" : "Mennekes Type 2 Socket@7,2 kW"
}, {
  "id" : 1579,
  "name" : "Mirna Peč AC Schuko R",
  "address" : "Trg",
  "town" : "Mirna Peč",
  "lat" : 45.859071,
  "lng" : 15.083772,
  "deluje" : 1,
  "cena_KW" : "",
  "reklamni_tekst_baner" : "",
  "cena_na_vklop" : "",
  "opis" : "Phone Call Mobile App",
  "opis_tip_prikljucka_vticnice" : "Schuko 230V@2 kW"
}, {
  "id" : 1581,
  "name" : "Mirna Peč AC Schuko L",
  "address" : "Trg",
  "town" : "Mirna Peč",
  "lat" : 45.859071,
  "lng" : 15.083772,
  "deluje" : 1,
  "cena_KW" : "",
  "reklamni_tekst_baner" : "",
  "cena_na_vklop" : "",
  "opis" : "Phone Call Mobile App",
  "opis_tip_prikljucka_vticnice" : "Schuko 230V@2 kW"
}, {
  "id" : 1597,
  "name" : "Občina Miklavž Mennekes",
  "address" : "Nad izviri",
  "town" : "Miklavž na Dravskem polju",
  "lat" : 46.502008,
  "lng" : 15.703705,
  "deluje" : 1,
  "cena_KW" : "",
  "reklamni_tekst_baner" : "",
  "cena_na_vklop" : "",
  "opis" : "Phone Call Mobile App",
  "opis_tip_prikljucka_vticnice" : "Mennekes Type 2 Socket@22 kW"
}, {
  "id" : 1599,
  "name" : "Občina Miklavž Schuko L",
  "address" : "Nad izviri",
  "town" : "Miklavž na Dravskem polju",
  "lat" : 46.502008,
  "lng" : 15.703705,
  "deluje" : 1,
  "cena_KW" : "",
  "reklamni_tekst_baner" : "",
  "cena_na_vklop" : "",
  "opis" : "Phone Call Mobile App",
  "opis_tip_prikljucka_vticnice" : "Schuko 230V@3,6 kW"
}, {
  "id" : 1601,
  "name" : "Občina Miklavž Schuko R",
  "address" : "Nad izviri",
  "town" : "Miklavž na Dravskem polju",
  "lat" : 46.502008,
  "lng" : 15.703705,
  "deluje" : 1,
  "cena_KW" : "",
  "reklamni_tekst_baner" : "",
  "cena_na_vklop" : "",
  "opis" : "Phone Call Mobile App",
  "opis_tip_prikljucka_vticnice" : "Schuko 230V@3,6 kW"
}, {
  "id" : 1609,
  "name" : "DUCATI Mennekes",
  "address" : "",
  "town" : "",
  "lat" : 46.253275,
  "lng" : 16.607289,
  "deluje" : 0,
  "cena_KW" : "",
  "reklamni_tekst_baner" : "",
  "cena_na_vklop" : "",
  "opis" : "Phone Call Mobile App",
  "opis_tip_prikljucka_vticnice" : "Mennekes Type 2 Socket@15 kW"
}, {
  "id" : 1611,
  "name" : "DUCATI Mennekes 1F",
  "address" : "",
  "town" : "",
  "lat" : 46.253279,
  "lng" : 16.607273,
  "deluje" : 0,
  "cena_KW" : "",
  "reklamni_tekst_baner" : "",
  "cena_na_vklop" : "",
  "opis" : "Phone Call Mobile App",
  "opis_tip_prikljucka_vticnice" : "Mennekes Type 2 Socket@2 kW"
}, {
  "id" : 1623,
  "name" : "Koblarjev zaliv",
  "address" : "Na Otok",
  "town" : "Kamnica",
  "lat" : 46.565566,
  "lng" : 15.619317,
  "deluje" : 1,
  "cena_KW" : "",
  "reklamni_tekst_baner" : "",
  "cena_na_vklop" : "",
  "opis" : "Phone Call Mobile App",
  "opis_tip_prikljucka_vticnice" : "Mennekes Type 2 Socket@22 kW"
}, {
  "id" : 1625,
  "name" : "Koblarjev zaliv",
  "address" : "Na Otok",
  "town" : "Kamnica",
  "lat" : 46.565566,
  "lng" : 15.619317,
  "deluje" : 1,
  "cena_KW" : "",
  "reklamni_tekst_baner" : "",
  "cena_na_vklop" : "",
  "opis" : "Phone Call Mobile App",
  "opis_tip_prikljucka_vticnice" : "Schuko 230V@3,6 kW"
}, {
  "id" : 1627,
  "name" : "Šentilj pod Turjakom",
  "address" : "Šentilj pod Turjakom",
  "town" : "Mislinja",
  "lat" : 46.44919,
  "lng" : 15.18649,
  "deluje" : 1,
  "cena_KW" : "0.150",
  "reklamni_tekst_baner" : "",
  "cena_na_vklop" : "0.20",
  "opis" : "Phone Call Mobile App",
  "opis_tip_prikljucka_vticnice" : "Schuko 230V@3,6 kW"
}, {
  "id" : 1629,
  "name" : "Šentilj pod Turjakom",
  "address" : "Šentilj pod Turjakom",
  "town" : "Mislinja",
  "lat" : 46.44919,
  "lng" : 15.18649,
  "deluje" : 1,
  "cena_KW" : "0.180",
  "reklamni_tekst_baner" : "",
  "cena_na_vklop" : "0.20",
  "opis" : "Phone Call Mobile App",
  "opis_tip_prikljucka_vticnice" : "Mennekes Type 2 Socket@17 kW"
}, {
  "id" : 1637,
  "name" : "Mislinja pri TUŠ-u Mennekes",
  "address" : "Šolska cesta",
  "town" : "Mislinja",
  "lat" : 46.444921,
  "lng" : 15.194856,
  "deluje" : 1,
  "cena_KW" : "0.150",
  "reklamni_tekst_baner" : "",
  "cena_na_vklop" : "0.20",
  "opis" : "Phone Call Mobile App",
  "opis_tip_prikljucka_vticnice" : "Mennekes Type 2 Socket@15 kW"
}, {
  "id" : 1639,
  "name" : "Mislinja pri TUŠ-u Schuko",
  "address" : "Šolska cesta",
  "town" : "Mislinja",
  "lat" : 46.444921,
  "lng" : 15.194856,
  "deluje" : 1,
  "cena_KW" : "0.150",
  "reklamni_tekst_baner" : "",
  "cena_na_vklop" : "0.20",
  "opis" : "Phone Call Mobile App",
  "opis_tip_prikljucka_vticnice" : "Schuko 230V@3,6 kW"
}, {
  "id" : 1655,
  "name" : "Ruše KOČA COJZARICA Shuko levi",
  "address" : "Smolnik",
  "town" : "Ruše",
  "lat" : 46.50189,
  "lng" : 15.48008,
  "deluje" : 1,
  "cena_KW" : "",
  "reklamni_tekst_baner" : "",
  "cena_na_vklop" : "",
  "opis" : "Phone Call Mobile App",
  "opis_tip_prikljucka_vticnice" : "Schuko 230V@2 kW"
}, {
  "id" : 1657,
  "name" : "Ruše KOČA COJZARICA Shuko desni",
  "address" : "Smolnik",
  "town" : "Ruše",
  "lat" : 46.50189,
  "lng" : 15.48008,
  "deluje" : 1,
  "cena_KW" : "",
  "reklamni_tekst_baner" : "",
  "cena_na_vklop" : "",
  "opis" : "Phone Call Mobile App",
  "opis_tip_prikljucka_vticnice" : "Schuko 230V@2 kW"
}, {
  "id" : 1659,
  "name" : "Ruše KOČA COJZARICA Bosch levi",
  "address" : "Smolnik",
  "town" : "Ruše",
  "lat" : 46.50189,
  "lng" : 15.48008,
  "deluje" : 1,
  "cena_KW" : "",
  "reklamni_tekst_baner" : "",
  "cena_na_vklop" : "",
  "opis" : "Phone Call Mobile App",
  "opis_tip_prikljucka_vticnice" : "Bosch hitri polnilec 6A"
}, {
  "id" : 1661,
  "name" : "Ruše KOČA COJZARICA Bosch desni",
  "address" : "Smolnik",
  "town" : "Ruše",
  "lat" : 46.50189,
  "lng" : 15.48008,
  "deluje" : 1,
  "cena_KW" : "",
  "reklamni_tekst_baner" : "",
  "cena_na_vklop" : "",
  "opis" : "Phone Call Mobile App",
  "opis_tip_prikljucka_vticnice" : "Bosch hitri polnilec 6A"
}, {
  "id" : 1669,
  "name" : "Ruše DOM NA PEČKAH Shuko levi",
  "address" : "Log",
  "town" : "Bistrica ob Dravi",
  "lat" : 46.522878,
  "lng" : 15.540937,
  "deluje" : 1,
  "cena_KW" : "",
  "reklamni_tekst_baner" : "",
  "cena_na_vklop" : "",
  "opis" : "Phone Call Mobile App",
  "opis_tip_prikljucka_vticnice" : "Schuko 230V@2 kW"
}, {
  "id" : 1671,
  "name" : "Ruše DOM NA PEČKAH Shuko desni",
  "address" : "Log",
  "town" : "Bistrica ob Dravi",
  "lat" : 46.522878,
  "lng" : 15.540937,
  "deluje" : 1,
  "cena_KW" : "",
  "reklamni_tekst_baner" : "",
  "cena_na_vklop" : "",
  "opis" : "Phone Call Mobile App",
  "opis_tip_prikljucka_vticnice" : "Schuko 230V@2 kW"
}, {
  "id" : 1673,
  "name" : "Ruše DOM NA PEČKAH Bosch levi ",
  "address" : "Log",
  "town" : "Bistrica ob Dravi",
  "lat" : 46.522878,
  "lng" : 15.540937,
  "deluje" : 1,
  "cena_KW" : "",
  "reklamni_tekst_baner" : "",
  "cena_na_vklop" : "",
  "opis" : "Phone Call Mobile App",
  "opis_tip_prikljucka_vticnice" : "Bosch hitri polnilec 6A"
}, {
  "id" : 1675,
  "name" : "Ruše DOM NA PEČKAH Bosch desni",
  "address" : "Log",
  "town" : "Bistrica ob Dravi",
  "lat" : 46.522878,
  "lng" : 15.540937,
  "deluje" : 1,
  "cena_KW" : "",
  "reklamni_tekst_baner" : "",
  "cena_na_vklop" : "",
  "opis" : "Phone Call Mobile App",
  "opis_tip_prikljucka_vticnice" : "Bosch hitri polnilec 6A"
}, {
  "id" : 1677,
  "name" : "Ruše Bistrica TRGOVINA JAGER Shuko levi",
  "address" : "Šolska ulica",
  "town" : "Bistrica ob Dravi",
  "lat" : 46.556218,
  "lng" : 15.555812,
  "deluje" : 1,
  "cena_KW" : "",
  "reklamni_tekst_baner" : "",
  "cena_na_vklop" : "",
  "opis" : "Phone Call Mobile App",
  "opis_tip_prikljucka_vticnice" : "Schuko 230V@2 kW"
}, {
  "id" : 1679,
  "name" : "Ruše Bistrica TRGOVINA JAGER Shuko desni",
  "address" : "Šolska ulica",
  "town" : "Bistrica ob Dravi",
  "lat" : 46.556218,
  "lng" : 15.555812,
  "deluje" : 1,
  "cena_KW" : "",
  "reklamni_tekst_baner" : "",
  "cena_na_vklop" : "",
  "opis" : "Phone Call Mobile App",
  "opis_tip_prikljucka_vticnice" : "Schuko 230V@2 kW"
}, {
  "id" : 1681,
  "name" : "Ruše Bistrica TRGOVINA JAGER Bosch levi",
  "address" : "Šolska ulica",
  "town" : "Bistrica ob Dravi",
  "lat" : 46.556218,
  "lng" : 15.555812,
  "deluje" : 1,
  "cena_KW" : "",
  "reklamni_tekst_baner" : "",
  "cena_na_vklop" : "",
  "opis" : "Phone Call Mobile App",
  "opis_tip_prikljucka_vticnice" : "@ Bosch 6A"
}, {
  "id" : 1683,
  "name" : "Ruše Bistrica TRGOVINA JAGER Bosch desni",
  "address" : "Šolska ulica",
  "town" : "Bistrica ob Dravi",
  "lat" : 46.556218,
  "lng" : 15.555812,
  "deluje" : 1,
  "cena_KW" : "",
  "reklamni_tekst_baner" : "",
  "cena_na_vklop" : "",
  "opis" : "Phone Call Mobile App",
  "opis_tip_prikljucka_vticnice" : "@ Bosch 6A"
}, {
  "id" : 1685,
  "name" : "RUŠE OB BAZENU 1 Shuko levi",
  "address" : "Stadionska ulica",
  "town" : "Ruše",
  "lat" : 46.544288,
  "lng" : 15.508975,
  "deluje" : 1,
  "cena_KW" : "",
  "reklamni_tekst_baner" : "",
  "cena_na_vklop" : "",
  "opis" : "Phone Call Mobile App",
  "opis_tip_prikljucka_vticnice" : "Schuko 230V@0.5 kW"
}, {
  "id" : 1687,
  "name" : "RUŠE OB BAZENU 1 Shuko desni",
  "address" : "Stadionska ulica",
  "town" : "Ruše",
  "lat" : 46.544315,
  "lng" : 15.509001,
  "deluje" : 1,
  "cena_KW" : "",
  "reklamni_tekst_baner" : "",
  "cena_na_vklop" : "",
  "opis" : "Phone Call Mobile App",
  "opis_tip_prikljucka_vticnice" : "Schuko 230V@0.5 kW"
}, {
  "id" : 1689,
  "name" : "RUŠE OB BAZENU 1 Bosch levi",
  "address" : "Stadionska ulica",
  "town" : "Ruše",
  "lat" : 46.544323,
  "lng" : 15.508872,
  "deluje" : 1,
  "cena_KW" : "",
  "reklamni_tekst_baner" : "",
  "cena_na_vklop" : "",
  "opis" : "Phone Call Mobile App",
  "opis_tip_prikljucka_vticnice" : "@ Bosch 6A"
}, {
  "id" : 1691,
  "name" : "RUŠE OB BAZENU 1 Bosch desni",
  "address" : "Šolska pot",
  "town" : "Ruše",
  "lat" : 46.54417,
  "lng" : 15.508824,
  "deluje" : 1,
  "cena_KW" : "",
  "reklamni_tekst_baner" : "",
  "cena_na_vklop" : "",
  "opis" : "Phone Call Mobile App",
  "opis_tip_prikljucka_vticnice" : "@ Bosch 6A"
}, {
  "id" : 1693,
  "name" : "GOSTILNA ČRNI LABOD Shuko levi",
  "address" : "Falska cesta",
  "town" : "Ruše ",
  "lat" : 46.537054,
  "lng" : 15.49929,
  "deluje" : 1,
  "cena_KW" : "",
  "reklamni_tekst_baner" : "",
  "cena_na_vklop" : "",
  "opis" : "Phone Call Mobile App",
  "opis_tip_prikljucka_vticnice" : "Schuko 230V@2 kW"
}, {
  "id" : 1695,
  "name" : "GOSTILNA ČRNI LABOD Shuko desni",
  "address" : "Falska cesta",
  "town" : "Ruše ",
  "lat" : 46.537054,
  "lng" : 15.49929,
  "deluje" : 1,
  "cena_KW" : "",
  "reklamni_tekst_baner" : "",
  "cena_na_vklop" : "",
  "opis" : "Phone Call Mobile App",
  "opis_tip_prikljucka_vticnice" : "Schuko 230V@2 kW"
}, {
  "id" : 1697,
  "name" : "GOSTILNA ČRNI LABOD Bosch levi",
  "address" : "Falska cesta",
  "town" : "Ruše ",
  "lat" : 46.537054,
  "lng" : 15.49929,
  "deluje" : 1,
  "cena_KW" : "",
  "reklamni_tekst_baner" : "",
  "cena_na_vklop" : "",
  "opis" : "Phone Call Mobile App",
  "opis_tip_prikljucka_vticnice" : "@ Bosch 6A"
}, {
  "id" : 1699,
  "name" : "GOSTILNA ČRNI LABOD Bosch desni",
  "address" : "Falska cesta",
  "town" : "Ruše ",
  "lat" : 46.537054,
  "lng" : 15.49929,
  "deluje" : 1,
  "cena_KW" : "",
  "reklamni_tekst_baner" : "",
  "cena_na_vklop" : "",
  "opis" : "Phone Call Mobile App",
  "opis_tip_prikljucka_vticnice" : "@ Bosch 6A"
}, {
  "id" : 1701,
  "name" : "Ruše AREH SMUČARSKA KOČA Shuko levi",
  "address" : "",
  "town" : "Ruše",
  "lat" : 46.496263,
  "lng" : 15.508202,
  "deluje" : 0,
  "cena_KW" : "",
  "reklamni_tekst_baner" : "",
  "cena_na_vklop" : "",
  "opis" : "Phone Call Mobile App",
  "opis_tip_prikljucka_vticnice" : "Schuko 230V@2 kW"
}, {
  "id" : 1703,
  "name" : "Ruše AREH SMUČARSKA KOČA Shuko desni",
  "address" : "Pohorje",
  "town" : "Ruše",
  "lat" : 46.49607,
  "lng" : 15.50878,
  "deluje" : 0,
  "cena_KW" : "",
  "reklamni_tekst_baner" : "",
  "cena_na_vklop" : "",
  "opis" : "Phone Call Mobile App",
  "opis_tip_prikljucka_vticnice" : "Schuko 230V@2 kW"
}, {
  "id" : 1705,
  "name" : "Ruše AREH SMUČARSKA KOČA Bosch levi",
  "address" : "Pohorje",
  "town" : "Ruše",
  "lat" : 46.49607,
  "lng" : 15.50878,
  "deluje" : 0,
  "cena_KW" : "",
  "reklamni_tekst_baner" : "",
  "cena_na_vklop" : "",
  "opis" : "Phone Call Mobile App",
  "opis_tip_prikljucka_vticnice" : "Bosch hitri polnilec 6A"
}, {
  "id" : 1707,
  "name" : "Ruše AREH SMUČARSKA KOČA Bosch desni",
  "address" : "Pohorje",
  "town" : "Ruše",
  "lat" : 46.49607,
  "lng" : 15.50878,
  "deluje" : 0,
  "cena_KW" : "",
  "reklamni_tekst_baner" : "",
  "cena_na_vklop" : "",
  "opis" : "Phone Call Mobile App",
  "opis_tip_prikljucka_vticnice" : "Bosch hitri polnilec 6A"
}, {
  "id" : 1709,
  "name" : "MARTNICA-LOBNICA Shuko levi",
  "address" : "Lobnica",
  "town" : "Ruše",
  "lat" : 46.523416,
  "lng" : 15.525997,
  "deluje" : 0,
  "cena_KW" : "",
  "reklamni_tekst_baner" : "",
  "cena_na_vklop" : "",
  "opis" : "Phone Call Mobile App",
  "opis_tip_prikljucka_vticnice" : "Schuko 230V@2 kW "
}, {
  "id" : 1711,
  "name" : "MARTNICA-LOBNICA Shuko desni",
  "address" : "Lobnica",
  "town" : "Ruše",
  "lat" : 46.523416,
  "lng" : 15.525997,
  "deluje" : 0,
  "cena_KW" : "",
  "reklamni_tekst_baner" : "",
  "cena_na_vklop" : "",
  "opis" : "Phone Call Mobile App",
  "opis_tip_prikljucka_vticnice" : "Schuko 230V@2 kW "
}, {
  "id" : 1713,
  "name" : "MARTNICA-LOBNICA Bosch levi",
  "address" : "Lobnica",
  "town" : "Ruše",
  "lat" : 46.523416,
  "lng" : 15.525997,
  "deluje" : 0,
  "cena_KW" : "",
  "reklamni_tekst_baner" : "",
  "cena_na_vklop" : "",
  "opis" : "Phone Call Mobile App",
  "opis_tip_prikljucka_vticnice" : "Bosch hitri polnilec 6A"
}, {
  "id" : 1715,
  "name" : "MARTNICA-LOBNICA Bosch desni",
  "address" : "Lobnica",
  "town" : "Ruše",
  "lat" : 46.523416,
  "lng" : 15.525997,
  "deluje" : 0,
  "cena_KW" : "",
  "reklamni_tekst_baner" : "",
  "cena_na_vklop" : "",
  "opis" : "Phone Call Mobile App",
  "opis_tip_prikljucka_vticnice" : "Bosch hitri polnilec 6A"
}, {
  "id" : 1717,
  "name" : "GOSTILNA VERNIK Shuko levi",
  "address" : "Bazena",
  "town" : "Ruše",
  "lat" : 46.548705,
  "lng" : 15.535802,
  "deluje" : 1,
  "cena_KW" : "",
  "reklamni_tekst_baner" : "",
  "cena_na_vklop" : "",
  "opis" : "Phone Call Mobile App",
  "opis_tip_prikljucka_vticnice" : "Schuko 230V@2 kW "
}, {
  "id" : 1719,
  "name" : "GOSTILNA VERNIK Shuko desni",
  "address" : "Bazena",
  "town" : "Ruše",
  "lat" : 46.548705,
  "lng" : 15.535802,
  "deluje" : 1,
  "cena_KW" : "",
  "reklamni_tekst_baner" : "",
  "cena_na_vklop" : "",
  "opis" : "Phone Call Mobile App",
  "opis_tip_prikljucka_vticnice" : "Schuko 230V@2 kW"
}, {
  "id" : 1721,
  "name" : "GOSTILNA VERNIK Bosch levi",
  "address" : "Bazena",
  "town" : "Ruše",
  "lat" : 46.548705,
  "lng" : 15.535802,
  "deluje" : 1,
  "cena_KW" : "",
  "reklamni_tekst_baner" : "",
  "cena_na_vklop" : "",
  "opis" : "Phone Call Mobile App",
  "opis_tip_prikljucka_vticnice" : "Bosch hitri polnilec 6A"
}, {
  "id" : 1723,
  "name" : "GOSTILNA VERNIK Bosch desni",
  "address" : "Bazena",
  "town" : "Ruše",
  "lat" : 46.548705,
  "lng" : 15.535802,
  "deluje" : 1,
  "cena_KW" : "",
  "reklamni_tekst_baner" : "",
  "cena_na_vklop" : "",
  "opis" : "Phone Call Mobile App",
  "opis_tip_prikljucka_vticnice" : "Bosch hitri polnilec 6A"
}, {
  "id" : 1725,
  "name" : "RUŠE OB BAZENU 2 Shuko levi",
  "address" : "Šolska ulica",
  "town" : "Ruše",
  "lat" : 46.544226,
  "lng" : 15.508976,
  "deluje" : 1,
  "cena_KW" : "",
  "reklamni_tekst_baner" : "",
  "cena_na_vklop" : "",
  "opis" : "Phone Call Mobile App",
  "opis_tip_prikljucka_vticnice" : "Schuko 230V@2 kW"
}, {
  "id" : 1727,
  "name" : "RUŠE OB BAZENU 2 Shuko desni",
  "address" : "Šolska ulica",
  "town" : "Ruše",
  "lat" : 46.544226,
  "lng" : 15.508976,
  "deluje" : 1,
  "cena_KW" : "",
  "reklamni_tekst_baner" : "",
  "cena_na_vklop" : "",
  "opis" : "Phone Call Mobile App",
  "opis_tip_prikljucka_vticnice" : "Schuko 230V@2 kW"
}, {
  "id" : 1729,
  "name" : "RUŠE OB BAZENU 2 Bosch levi",
  "address" : "Šolska ulica",
  "town" : "Ruše",
  "lat" : 46.544226,
  "lng" : 15.508976,
  "deluje" : 1,
  "cena_KW" : "",
  "reklamni_tekst_baner" : "",
  "cena_na_vklop" : "",
  "opis" : "Phone Call Mobile App",
  "opis_tip_prikljucka_vticnice" : "@ Bosch 6A"
}, {
  "id" : 1731,
  "name" : "RUŠE OB BAZENU 2 Bosch desni",
  "address" : "Šolska ulica",
  "town" : "Ruše",
  "lat" : 46.544226,
  "lng" : 15.508976,
  "deluje" : 1,
  "cena_KW" : "",
  "reklamni_tekst_baner" : "",
  "cena_na_vklop" : "",
  "opis" : "Phone Call Mobile App",
  "opis_tip_prikljucka_vticnice" : "@ Bosch 6A"
}, {
  "id" : 1747,
  "name" : "Kostanjevica na Krki DC CHAdeMO",
  "address" : "Ljubljanska cesta",
  "town" : "Kostanjevica na Krki",
  "lat" : 45.844216,
  "lng" : 15.419158,
  "deluje" : 1,
  "cena_KW" : "0.230",
  "reklamni_tekst_baner" : "",
  "cena_na_vklop" : "0.20",
  "opis" : "Phone Call Mobile App",
  "opis_tip_prikljucka_vticnice" : "CHAdeMO DCFC@30 kW"
}, {
  "id" : 1749,
  "name" : "Kostanjevica na Krki DC CCS",
  "address" : "Ljubljanska cesta",
  "town" : "Kostanjevica na Krki",
  "lat" : 45.844216,
  "lng" : 15.419158,
  "deluje" : 1,
  "cena_KW" : "0.230",
  "reklamni_tekst_baner" : "",
  "cena_na_vklop" : "0.20",
  "opis" : "Phone Call Mobile App",
  "opis_tip_prikljucka_vticnice" : "CCS Combo@30 kW"
}, {
  "id" : 1751,
  "name" : "Kostanjevica na Krki  AC Mennekes Type 2",
  "address" : "Ljubljanska cesta",
  "town" : "Kostanjevica na Krki",
  "lat" : 45.844216,
  "lng" : 15.419158,
  "deluje" : 1,
  "cena_KW" : "0.210",
  "reklamni_tekst_baner" : "",
  "cena_na_vklop" : "0.10",
  "opis" : "Phone Call Mobile App",
  "opis_tip_prikljucka_vticnice" : "Mennekes Type 2 Socket@11 kW"
}, {
  "id" : 1753,
  "name" : "Kostanjevica na Krki AC Schuko L",
  "address" : "Ljubljanska cesta",
  "town" : "Kostanjevica na Krki",
  "lat" : 45.844216,
  "lng" : 15.419158,
  "deluje" : 1,
  "cena_KW" : "0.200",
  "reklamni_tekst_baner" : "",
  "cena_na_vklop" : "0.10",
  "opis" : "Phone Call Mobile App",
  "opis_tip_prikljucka_vticnice" : "Schuko 230V@3,6 kW"
}, {
  "id" : 1755,
  "name" : "Kostanjevica na Krki AC Schuko D",
  "address" : "Ljubljanska cesta",
  "town" : "Kostanjevica na Krki",
  "lat" : 45.844216,
  "lng" : 15.419158,
  "deluje" : 1,
  "cena_KW" : "0.200",
  "reklamni_tekst_baner" : "",
  "cena_na_vklop" : "0.10",
  "opis" : "Phone Call Mobile App",
  "opis_tip_prikljucka_vticnice" : "Schuko 230V@3,6 kW"
}, {
  "id" : 1769,
  "name" : "Ruše NK POHORJE Shuko levi",
  "address" : "Stadionska ulica",
  "town" : "Ruše",
  "lat" : 46.54389,
  "lng" : 15.50478,
  "deluje" : 1,
  "cena_KW" : "",
  "reklamni_tekst_baner" : "",
  "cena_na_vklop" : "",
  "opis" : "Plug & Charge Phone Call",
  "opis_tip_prikljucka_vticnice" : "Schuko 230V@0.5 kW"
}, {
  "id" : 1771,
  "name" : "Ruše NK POHORJE Shuko desni",
  "address" : "Stadionska ulica",
  "town" : "Ruše",
  "lat" : 46.54389,
  "lng" : 15.50478,
  "deluje" : 1,
  "cena_KW" : "",
  "reklamni_tekst_baner" : "",
  "cena_na_vklop" : "",
  "opis" : "Plug & Charge Phone Call",
  "opis_tip_prikljucka_vticnice" : "Schuko 230V@0.5 kW"
}, {
  "id" : 1773,
  "name" : "Ruše NK POHORJE Bosch levi",
  "address" : "Stadionska ulica",
  "town" : "Ruše",
  "lat" : 46.54389,
  "lng" : 15.50478,
  "deluje" : 1,
  "cena_KW" : "",
  "reklamni_tekst_baner" : "",
  "cena_na_vklop" : "",
  "opis" : "Plug & Charge Phone Call",
  "opis_tip_prikljucka_vticnice" : "@ Bosh 6A"
}, {
  "id" : 1775,
  "name" : "Ruše NK POHORJE Bosch desni",
  "address" : "Stadionska ulica",
  "town" : "Ruše",
  "lat" : 46.54389,
  "lng" : 15.50478,
  "deluje" : 1,
  "cena_KW" : "",
  "reklamni_tekst_baner" : "",
  "cena_na_vklop" : "",
  "opis" : "Plug & Charge Phone Call",
  "opis_tip_prikljucka_vticnice" : "@ Bosh 6A"
}, {
  "id" : 1818,
  "name" : "Bolnica Novi Marof  L type 2 ",
  "address" : "Specijalna bolnica za kronične bolesti",
  "town" : "Novi Marof",
  "lat" : 46.165898,
  "lng" : 16.337373,
  "deluje" : 1,
  "cena_KW" : "",
  "reklamni_tekst_baner" : "",
  "cena_na_vklop" : "",
  "opis" : "Phone Call Mobile App",
  "opis_tip_prikljucka_vticnice" : "Mennekes Type 2 Socket@22 kW"
}, {
  "id" : 1820,
  "name" : "Bolnica Varaždin uprava Type2 L - 398",
  "address" : "",
  "town" : "",
  "lat" : 46.302977,
  "lng" : 16.326637,
  "deluje" : 1,
  "cena_KW" : "",
  "reklamni_tekst_baner" : "",
  "cena_na_vklop" : "0.20",
  "opis" : "Phone Call Mobile App",
  "opis_tip_prikljucka_vticnice" : "Mennekes Type 2 Socket@22 kW"
}, {
  "id" : 1822,
  "name" : "Varaždin Bolnica uprava Type2 R",
  "address" : "Ul. Ivana Meštrovića",
  "town" : "Varaždin",
  "lat" : 46.302977,
  "lng" : 16.326637,
  "deluje" : 1,
  "cena_KW" : "",
  "reklamni_tekst_baner" : "",
  "cena_na_vklop" : "",
  "opis" : "Phone Call Mobile App",
  "opis_tip_prikljucka_vticnice" : "Mennekes Type 2 Socket@22 kW"
}, {
  "id" : 1824,
  "name" : "Bolnica Novi Marof R type 2 ",
  "address" : "Specijalna bolnica za kronične bolesti",
  "town" : "Novi Marof",
  "lat" : 46.165895,
  "lng" : 16.337353,
  "deluje" : 1,
  "cena_KW" : "",
  "reklamni_tekst_baner" : "",
  "cena_na_vklop" : "",
  "opis" : "Phone Call Mobile App",
  "opis_tip_prikljucka_vticnice" : "Mennekes Type 2 Socket@22 kW"
}, {
  "id" : 1826,
  "name" : "Varaždin Bolnica kuhinja L type 2",
  "address" : "Meštrovičeva",
  "town" : "Varaždin",
  "lat" : 46.303789,
  "lng" : 16.32733,
  "deluje" : 1,
  "cena_KW" : "",
  "reklamni_tekst_baner" : "",
  "cena_na_vklop" : "",
  "opis" : "Phone Call Mobile App",
  "opis_tip_prikljucka_vticnice" : "Mennekes Type 2 Socket@22 kW"
}, {
  "id" : 1828,
  "name" : "Varaždin Bolnica kuhinja R type 2",
  "address" : "Meštrovičeva",
  "town" : "Varaždin",
  "lat" : 46.303789,
  "lng" : 16.32733,
  "deluje" : 1,
  "cena_KW" : "",
  "reklamni_tekst_baner" : "",
  "cena_na_vklop" : "",
  "opis" : "Phone Call Mobile App",
  "opis_tip_prikljucka_vticnice" : "Mennekes Type 2 Socket@22 kW"
}, {
  "id" : 1830,
  "name" : "Ribnica na Pohorju",
  "address" : "Ribnica na Pohorju",
  "town" : "Ribnica na Pohorju",
  "lat" : 46.534884,
  "lng" : 15.268404,
  "deluje" : 1,
  "cena_KW" : "",
  "reklamni_tekst_baner" : "",
  "cena_na_vklop" : "",
  "opis" : "Phone Call Mobile App",
  "opis_tip_prikljucka_vticnice" : "Schuko 230V@3,6 kW"
}, {
  "id" : 1832,
  "name" : "Ribnica na Pohorju",
  "address" : "Ribnica na Pohorju",
  "town" : "Ribnica na Pohorju",
  "lat" : 46.534884,
  "lng" : 15.268404,
  "deluje" : 1,
  "cena_KW" : "",
  "reklamni_tekst_baner" : "",
  "cena_na_vklop" : "",
  "opis" : "Phone Call Mobile App",
  "opis_tip_prikljucka_vticnice" : "Mennekes Type 2 Socket@22 kW"
}, {
  "id" : 1864,
  "name" : "Ajdovščina Vipavski križ Type 2 R",
  "address" : "",
  "town" : "Ajdovščina",
  "lat" : 45.88139,
  "lng" : 13.86146,
  "deluje" : 1,
  "cena_KW" : "",
  "reklamni_tekst_baner" : "",
  "cena_na_vklop" : "",
  "opis" : "Phone Call Mobile App",
  "opis_tip_prikljucka_vticnice" : "Mennekes Type 2 Socket@11 kW"
}, {
  "id" : 1866,
  "name" : "Ajdovščina Vipavski križ Type 2 L",
  "address" : "",
  "town" : "Ajdovščina",
  "lat" : 45.88139,
  "lng" : 13.86146,
  "deluje" : 1,
  "cena_KW" : "",
  "reklamni_tekst_baner" : "",
  "cena_na_vklop" : "",
  "opis" : "Phone Call Mobile App",
  "opis_tip_prikljucka_vticnice" : "Mennekes Type 2 Socket@11 kW"
}, {
  "id" : 1870,
  "name" : "Selnica ob Dravi Schuko",
  "address" : "Slovenski trg",
  "town" : "Selnica ob Dravi",
  "lat" : 46.551499,
  "lng" : 15.492862,
  "deluje" : 1,
  "cena_KW" : "",
  "reklamni_tekst_baner" : "",
  "cena_na_vklop" : "",
  "opis" : "Phone Call Mobile App",
  "opis_tip_prikljucka_vticnice" : "Schuko 230V@3,6 kW"
}, {
  "id" : 1872,
  "name" : "Selnica ob Dravi Type2",
  "address" : "Slovenski trg",
  "town" : "Selnica ob Dravi",
  "lat" : 46.551499,
  "lng" : 15.492862,
  "deluje" : 1,
  "cena_KW" : "",
  "reklamni_tekst_baner" : "",
  "cena_na_vklop" : "",
  "opis" : "Phone Call Mobile App",
  "opis_tip_prikljucka_vticnice" : "Mennekes Type 2 Socket@22 kW"
}, {
  "id" : 2010,
  "name" : "Sveti Duh na Ostrem Vrhu za kolesa 6 vtičnic",
  "address" : "Sv.Duh na Ostrem Vrhu",
  "town" : "Sveti Duh na Ostrem Vrhu",
  "lat" : 46.614262,
  "lng" : 15.466178,
  "deluje" : 1,
  "cena_KW" : "",
  "reklamni_tekst_baner" : "",
  "cena_na_vklop" : "",
  "opis" : "Phone Call Mobile App",
  "opis_tip_prikljucka_vticnice" : "Schuko 230V@"
}, {
  "id" : 2014,
  "name" : "Bolfenk Type 2 L ",
  "address" : "Hočko Pohorje",
  "town" : "Pohorje",
  "lat" : 46.513828,
  "lng" : 15.57675,
  "deluje" : 1,
  "cena_KW" : "0.330",
  "reklamni_tekst_baner" : "",
  "cena_na_vklop" : "0.20",
  "opis" : "Phone Call Mobile App",
  "opis_tip_prikljucka_vticnice" : "Mennekes Type 2 Socket@22 kW"
}, {
  "id" : 2016,
  "name" : "Bolfenk Type 2 R",
  "address" : "Hočko Pohorje",
  "town" : "Pohorje",
  "lat" : 46.513875,
  "lng" : 15.576754,
  "deluje" : 1,
  "cena_KW" : "0.330",
  "reklamni_tekst_baner" : "",
  "cena_na_vklop" : "0.20",
  "opis" : "Phone Call Mobile App",
  "opis_tip_prikljucka_vticnice" : "Mennekes Type 2 Socket@22 kW"
}, {
  "id" : 2042,
  "name" : "Brauhaus Breznik AC wall Type 2\n",
  "address" : "10. Oktober Pl.",
  "town" : "Bleiburg",
  "lat" : 46.590142,
  "lng" : 14.798833,
  "deluje" : 1,
  "cena_KW" : "",
  "reklamni_tekst_baner" : "",
  "cena_na_vklop" : "",
  "opis" : "Phone Call Mobile App",
  "opis_tip_prikljucka_vticnice" : "Mennekes Type 2 Socket@22 kW"
}, {
  "id" : 2054,
  "name" : "Sodražica Travna Gora",
  "address" : "Travna Gora",
  "town" : "Sodražica",
  "lat" : 45.735684,
  "lng" : 14.644826,
  "deluje" : 1,
  "cena_KW" : "",
  "reklamni_tekst_baner" : "",
  "cena_na_vklop" : "0.20",
  "opis" : "Phone Call Mobile App",
  "opis_tip_prikljucka_vticnice" : "Mennekes Type 2 Socket@15 kW"
}, {
  "id" : 2060,
  "name" : "Anto type 2",
  "address" : "Schwegler strasse",
  "town" : "Wien",
  "lat" : 48.19754,
  "lng" : 16.32845,
  "deluje" : 0,
  "cena_KW" : "",
  "reklamni_tekst_baner" : "",
  "cena_na_vklop" : "",
  "opis" : "Button Phone Call Mobile App",
  "opis_tip_prikljucka_vticnice" : "Mennekes Type 2 Socket@20 kW"
}, {
  "id" : 2062,
  "name" : "Socaholidays Most na Soči",
  "address" : "Most na Soči",
  "town" : "Most na Soči",
  "lat" : 46.152077,
  "lng" : 13.742995,
  "deluje" : 1,
  "cena_KW" : "",
  "reklamni_tekst_baner" : "",
  "cena_na_vklop" : "",
  "opis" : "Phone Call Mobile App",
  "opis_tip_prikljucka_vticnice" : "Mennekes Type 2 Socket@22 kW"
}, {
  "id" : 2070,
  "name" : "Nova Gorica - kolesarska",
  "address" : "",
  "town" : "Nova Gorica",
  "lat" : 45.959648,
  "lng" : 13.650668,
  "deluje" : 1,
  "cena_KW" : "",
  "reklamni_tekst_baner" : "",
  "cena_na_vklop" : "",
  "opis" : "Phone Call Mobile App",
  "opis_tip_prikljucka_vticnice" : "Schuko 230V@500W"
}, {
  "id" : 2084,
  "name" : "Hotel INTEGRA parking",
  "address" : "Kralja Petra I Karađorđevića",
  "town" : "Banja Luka",
  "lat" : 44.777115,
  "lng" : 17.195207,
  "deluje" : 1,
  "cena_KW" : "",
  "reklamni_tekst_baner" : "",
  "cena_na_vklop" : "",
  "opis" : "Plug & Charge",
  "opis_tip_prikljucka_vticnice" : "Mennekes Type 2 Socket@"
}, {
  "id" : 2086,
  "name" : "Hotel INTEGRA garaža",
  "address" : "Kralja Petra I Karađorđevića",
  "town" : "Banja Luka",
  "lat" : 44.777115,
  "lng" : 17.195207,
  "deluje" : 1,
  "cena_KW" : "",
  "reklamni_tekst_baner" : "",
  "cena_na_vklop" : "",
  "opis" : "Plug & Charge",
  "opis_tip_prikljucka_vticnice" : "Mennekes Type 2 Socket@"
}, {
  "id" : 2150,
  "name" : "Testna A1 Type 2",
  "address" : "Trg svobode",
  "town" : "Slovenska Bistrica",
  "lat" : 46.392437,
  "lng" : 15.57267,
  "deluje" : 1,
  "cena_KW" : "",
  "reklamni_tekst_baner" : "",
  "cena_na_vklop" : "",
  "opis" : "Phone Call Mobile App",
  "opis_tip_prikljucka_vticnice" : "Mennekes Type 2 Socket@22 kW"
}, {
  "id" : 2170,
  "name" : "Črenšovci kolesarska",
  "address" : "Ulica Juša Kramarja",
  "town" : "Črenšovci",
  "lat" : 46.568958,
  "lng" : 16.294696,
  "deluje" : 0,
  "cena_KW" : "",
  "reklamni_tekst_baner" : "",
  "cena_na_vklop" : "",
  "opis" : "Phone Call Mobile App",
  "opis_tip_prikljucka_vticnice" : "Schuko 230V@"
}, {
  "id" : 2172,
  "name" : "Črenšovci kolesarska",
  "address" : "Ulica Juša Kramarja",
  "town" : "Črenšovci",
  "lat" : 46.568958,
  "lng" : 16.294696,
  "deluje" : 0,
  "cena_KW" : "",
  "reklamni_tekst_baner" : "",
  "cena_na_vklop" : "",
  "opis" : "Phone Call Mobile App",
  "opis_tip_prikljucka_vticnice" : "Schuko 230V@"
}, {
  "id" : 2174,
  "name" : "Črenšovci kolesarska",
  "address" : "Ulica Juša Kramarja",
  "town" : "Črenšovci",
  "lat" : 46.568958,
  "lng" : 16.294696,
  "deluje" : 0,
  "cena_KW" : "",
  "reklamni_tekst_baner" : "",
  "cena_na_vklop" : "",
  "opis" : "Phone Call Mobile App",
  "opis_tip_prikljucka_vticnice" : "42V@4A hitri polnilec"
}, {
  "id" : 2176,
  "name" : "Črenšovci kolesarska",
  "address" : "Ulica Juša Kramarja",
  "town" : "Črenšovci",
  "lat" : 46.568958,
  "lng" : 16.294696,
  "deluje" : 0,
  "cena_KW" : "",
  "reklamni_tekst_baner" : "",
  "cena_na_vklop" : "",
  "opis" : "Phone Call Mobile App",
  "opis_tip_prikljucka_vticnice" : "42V@4A hitri polnilec"
} ]