[ {
  "id" : 2492,
  "name" : "Kočevje Zdr. dom AC Type 2  838L",
  "address" : "Roška cesta",
  "town" : "Kočevje",
  "lat" : 45.639775,
  "lng" : 14.866516,
  "deluje" : 1,
  "cena_KW" : "0.350",
  "reklamni_tekst_baner" : "",
  "cena_na_vklop" : "0.20",
  "opis" : "Phone Call Mobile App",
  "opis_tip_prikljucka_vticnice" : "Mennekes Type 2 Plug@22 kW"
}, {
  "id" : 2494,
  "name" : "Kočevje Zdr. dom AC Type 2  838R",
  "address" : "Roška cesta",
  "town" : "Kočevje",
  "lat" : 45.639775,
  "lng" : 14.866516,
  "deluje" : 1,
  "cena_KW" : "0.350",
  "reklamni_tekst_baner" : "",
  "cena_na_vklop" : "0.20",
  "opis" : "Phone Call Mobile App",
  "opis_tip_prikljucka_vticnice" : "Mennekes Type 2 Plug@22 kW"
}, {
  "id" : 2496,
  "name" : "Kočevje Zdr. dom AC Type 2 840L",
  "address" : "Roška cesta",
  "town" : "Kočevje",
  "lat" : 45.639778,
  "lng" : 14.866512,
  "deluje" : 1,
  "cena_KW" : "0.350",
  "reklamni_tekst_baner" : "",
  "cena_na_vklop" : "0.20",
  "opis" : "Phone Call Mobile App",
  "opis_tip_prikljucka_vticnice" : "Mennekes Type 2 Plug@22 kW"
}, {
  "id" : 2498,
  "name" : "Kočevje Zdr. dom AC Type 2 840R",
  "address" : "Roška cesta",
  "town" : "Kočevje",
  "lat" : 45.639778,
  "lng" : 14.866512,
  "deluje" : 1,
  "cena_KW" : "0.350",
  "reklamni_tekst_baner" : "",
  "cena_na_vklop" : "0.20",
  "opis" : "Phone Call Mobile App",
  "opis_tip_prikljucka_vticnice" : "Mennekes Type 2 Plug@22 kW"
} ]