[ {
  "id" : 2448,
  "name" : "Atriva za kolesa schuko",
  "address" : "Spodnja Vižinga",
  "town" : "Radlje",
  "lat" : 46.604343,
  "lng" : 15.238953,
  "deluje" : 0,
  "cena_KW" : "",
  "reklamni_tekst_baner" : "",
  "cena_na_vklop" : "0.00",
  "opis" : "Phone Call Mobile App",
  "opis_tip_prikljucka_vticnice" : "Schuko 230V@"
}, {
  "id" : 2450,
  "name" : "Atriva 860 - 2",
  "address" : "Spodnja Vižinga",
  "town" : "Radlje ob Dravi",
  "lat" : 46.604343,
  "lng" : 15.238953,
  "deluje" : 1,
  "cena_KW" : "",
  "reklamni_tekst_baner" : "",
  "cena_na_vklop" : "",
  "opis" : "Phone Call Mobile App",
  "opis_tip_prikljucka_vticnice" : "Schuko 230V@"
}, {
  "id" : 2452,
  "name" : "Atriva 862 - 3",
  "address" : "Spodnja Vižinga",
  "town" : "Radlje ob Dravi",
  "lat" : 46.604343,
  "lng" : 15.238953,
  "deluje" : 1,
  "cena_KW" : "",
  "reklamni_tekst_baner" : "",
  "cena_na_vklop" : "",
  "opis" : "Phone Call Mobile App",
  "opis_tip_prikljucka_vticnice" : "Schuko 230V@"
}, {
  "id" : 2454,
  "name" : "Atriva 864 - 4",
  "address" : "Spodnja Vižinga",
  "town" : "Radlje ob Dravi",
  "lat" : 46.604343,
  "lng" : 15.238953,
  "deluje" : 1,
  "cena_KW" : "",
  "reklamni_tekst_baner" : "",
  "cena_na_vklop" : "",
  "opis" : "Phone Call Mobile App",
  "opis_tip_prikljucka_vticnice" : "Schuko 230V@"
}, {
  "id" : 2456,
  "name" : "Atriva 866 - 5",
  "address" : "Spodnja Vižinga",
  "town" : "Radlje ob Dravi",
  "lat" : 46.604343,
  "lng" : 15.238953,
  "deluje" : 1,
  "cena_KW" : "",
  "reklamni_tekst_baner" : "",
  "cena_na_vklop" : "",
  "opis" : "Phone Call Mobile App",
  "opis_tip_prikljucka_vticnice" : "Schuko 230V@"
}, {
  "id" : 2458,
  "name" : "Atriva 868 - 6",
  "address" : "Spodnja Vižinga",
  "town" : "Radlje ob Dravi",
  "lat" : 46.604343,
  "lng" : 15.238953,
  "deluje" : 0,
  "cena_KW" : "",
  "reklamni_tekst_baner" : "",
  "cena_na_vklop" : "0.00",
  "opis" : "Phone Call Mobile App",
  "opis_tip_prikljucka_vticnice" : "Schuko 230V@"
} ]